<?xml version="1.0" encoding="ISO-8859-1" standalone="yes"?>
<gpx
 version="1.1"
 creator="ExpertGPS 1.3.7 - http://www.topografix.com"
 xmlns:xsi="http://www.w3.org/2001/XMLSchema-instance"
 xmlns="http://www.topografix.com/GPX/1/1"
 xmlns:topografix="http://www.topografix.com/GPX/Private/TopoGrafix/0/2"
 xsi:schemaLocation="http://www.topografix.com/GPX/1/1 http://www.topografix.com/GPX/1/1/gpx.xsd
 http://www.topografix.com/GPX/Private/TopoGrafix/0/2 http://www.topografix.com/GPX/Private/TopoGrafix/0/2/topografix.xsd">
<metadata>
 <desc>Geocache file generated by GSAK</desc>
 <author>
 <name>GSAK</name>
 <email id="clyde" domain="gsak.net"/>
 </author>
<time>2005-10-26T02:20:32Z</time>
<keywords><![CDATA[cache, geocache, groundspeak]]></keywords>
<bounds minlat="33.792883" minlon="-91.298733" maxlat="40.012300" maxlon="-83.387100"/>
</metadata>
<wpt lat="38.589348335" lon="-89.457851630"><time>2004-12-24T00:00:00Z</time>
 <name>BromlKen</name>
 <desc>BromleyKen by SWB (1/1)</desc>
 <url>BromleyKen by SWB (1/1)</url>
 <urlname>BromleyKen by SWB</urlname>
 <sym>Geocache</sym>
 <type>Geocache|Benchmark</type>
</wpt>
<wpt lat="33.971033000" lon="-83.889217000"><time>2003-06-01T00:00:00Z</time>
 <name>GCG71M</name>
 <desc>- by . (4/2.5)</desc>
 <url>http://www.geocaching.com/seek/cache_details.aspx?guid=82028a59-a838-49c4-9c2a-5b16e6715e0f</url>
 <urlname>- by .</urlname>
 <sym>Geocache</sym>
 <type>Geocache|Unknown Cache</type>
</wpt>
<wpt lat="38.687933000" lon="-87.882317000"><time>2005-10-11T00:00:00Z</time>
 <name>GCQY6P</name>
 <desc>A Fond Farewell to Winged Fox by Cache Slash Crew (1.5/1)</desc>
 <url>http://www.geocaching.com/seek/cache_details.aspx?guid=cc045302-8e88-4084-84bd-8a1027e09428</url>
 <urlname>A Fond Farewell to Winged Fox by Cache Slash Crew</urlname>
 <sym>Geocache</sym>
 <type>Geocache|Traditional Cache</type>
</wpt>
<wpt lat="38.732600000" lon="-87.983517000"><time>2005-10-14T00:00:00Z</time>
 <name>GCQZGN</name>
 <desc>What's in a name? by Cache Slash Crew (3/2)</desc>
 <url>http://www.geocaching.com/seek/cache_details.aspx?guid=b43aa0ea-ee9d-413f-badb-c1d98b63585b</url>
 <urlname>What's in a name? by Cache Slash Crew</urlname>
 <sym>Geocache</sym>
 <type>Geocache|Traditional Cache</type>
</wpt>
<wpt lat="38.733183000" lon="-88.006617000"><time>2005-10-14T00:00:00Z</time>
 <name>GCQZH0</name>
 <desc>Road Kill Gator? by Cache Slash Crew (3/2)</desc>
 <url>http://www.geocaching.com/seek/cache_details.aspx?guid=53956487-3fa1-4bbf-a1d7-812e7b383ae8</url>
 <urlname>Road Kill Gator? by Cache Slash Crew</urlname>
 <sym>Geocache</sym>
 <type>Geocache|Traditional Cache</type>
</wpt>
<wpt lat="38.732583000" lon="-88.020183000"><time>2005-10-14T00:00:00Z</time>
 <name>GCQZGF</name>
 <desc>Not! by Cache Slash Crew (3/2)</desc>
 <url>http://www.geocaching.com/seek/cache_details.aspx?guid=c1494472-9fa0-4d54-ba88-415250c38ea5</url>
 <urlname>Not! by Cache Slash Crew</urlname>
 <sym>Geocache</sym>
 <type>Geocache|Traditional Cache</type>
</wpt>
<wpt lat="38.799983000" lon="-90.642500000"><time>2005-10-18T00:00:00Z</time>
 <name>GCR10T</name>
 <desc>What a racket!! by vineyard20 (1.5/1)</desc>
 <url>http://www.geocaching.com/seek/cache_details.aspx?guid=b2318aa0-b3c9-4858-bf40-df2393e86108</url>
 <urlname>What a racket!! by vineyard20</urlname>
 <sym>Geocache</sym>
 <type>Geocache|Traditional Cache</type>
</wpt>
<wpt lat="38.751783000" lon="-90.579233000"><time>2005-10-18T00:00:00Z</time>
 <name>GCR0Y0</name>
 <desc>ARCHWOOD by Happykraut (2/1.5)</desc>
 <url>http://www.geocaching.com/seek/cache_details.aspx?guid=134972fb-0020-4540-80cd-d8c9ec5bd7d8</url>
 <urlname>ARCHWOOD by Happykraut</urlname>
 <sym>Geocache</sym>
 <type>Geocache|Traditional Cache</type>
</wpt>
<wpt lat="38.509883000" lon="-90.588900000"><time>2005-10-20T00:00:00Z</time>
 <name>GCQZJZ</name>
 <desc>Old Bridge #4 by Dime-osaur (2/1.5)</desc>
 <url>http://www.geocaching.com/seek/cache_details.aspx?guid=6a2bd1e7-d7d0-4d42-a86f-72a084fa4455</url>
 <urlname>Old Bridge #4 by Dime-osaur</urlname>
 <sym>Geocache</sym>
 <type>Geocache|Multi-cache</type>
</wpt>
<wpt lat="38.557350000" lon="-90.450967000"><time>2005-10-17T00:00:00Z</time>
 <name>GCR0JW</name>
 <desc>Hidden Three Times by maylith (1.5/1)</desc>
 <url>http://www.geocaching.com/seek/cache_details.aspx?guid=7cd90a6b-6248-4238-8639-ff2ed5d0fb3e</url>
 <urlname>Hidden Three Times by maylith</urlname>
 <sym>Geocache</sym>
 <type>Geocache|Traditional Cache</type>
</wpt>
<wpt lat="38.571900000" lon="-90.277550000"><time>2005-10-19T00:00:00Z</time>
 <name>GCR1A4</name>
 <desc>Tenderfoot Cache by Sniper1 (1/2)</desc>
 <url>http://www.geocaching.com/seek/cache_details.aspx?guid=f35a7748-e168-4512-97ae-97b6e3df2cdd</url>
 <urlname>Tenderfoot Cache by Sniper1</urlname>
 <sym>Geocache</sym>
 <type>Geocache|Multi-cache</type>
</wpt>
<wpt lat="38.738267000" lon="-88.090917000"><time>2005-10-14T00:00:00Z</time>
 <name>GCQZC8</name>
 <desc>Still No Name by Cache Slash Crew (1/1)</desc>
 <url>http://www.geocaching.com/seek/cache_details.aspx?guid=fd1785b8-8c03-4cc6-bf55-3693b37c1b5f</url>
 <urlname>Still No Name by Cache Slash Crew</urlname>
 <sym>Geocache</sym>
 <type>Geocache|Traditional Cache</type>
</wpt>
<wpt lat="38.741483000" lon="-88.109600000"><time>2005-10-15T00:00:00Z</time>
 <name>GCQZG8</name>
 <desc>Past the Bend by Cache Slash Crew (3/2)</desc>
 <url>http://www.geocaching.com/seek/cache_details.aspx?guid=7436d540-d624-4dec-9ec7-0cec05385950</url>
 <urlname>Past the Bend by Cache Slash Crew</urlname>
 <sym>Geocache</sym>
 <type>Geocache|Traditional Cache</type>
</wpt>
<wpt lat="39.826450000" lon="-89.013917000"><time>2005-10-20T00:00:00Z</time>
 <name>GCR1N7</name>
 <desc>Ol' Beater by Team MZFD (2.5/2.5)</desc>
 <url>http://www.geocaching.com/seek/cache_details.aspx?guid=e062813f-87aa-4f43-9885-6b4237bea932</url>
 <urlname>Ol' Beater by Team MZFD</urlname>
 <sym>Geocache</sym>
 <type>Geocache|Traditional Cache</type>
</wpt>
<wpt lat="39.821450000" lon="-89.016383000"><time>2005-10-17T00:00:00Z</time>
 <name>GCR0RP</name>
 <desc>O Tannenbaum by 2golfers (2/1.5)</desc>
 <url>http://www.geocaching.com/seek/cache_details.aspx?guid=d5a0e118-aaeb-4ca2-b943-c9ac0e03752f</url>
 <urlname>O Tannenbaum by 2golfers</urlname>
 <sym>Geocache</sym>
 <type>Geocache|Traditional Cache</type>
</wpt>
<wpt lat="37.672433000" lon="-88.424017000"><time>2005-10-22T00:00:00Z</time>
 <name>GCR2G2</name>
 <desc>Sunrise Rocks by RAYJAY (1/3)</desc>
 <url>http://www.geocaching.com/seek/cache_details.aspx?guid=81be66ab-d5bd-42e6-b164-ec0613ea84ba</url>
 <urlname>Sunrise Rocks by RAYJAY</urlname>
 <sym>Geocache</sym>
 <type>Geocache|Traditional Cache</type>
</wpt>
<wpt lat="37.102100000" lon="-89.263350000"><time>2005-10-16T00:00:00Z</time>
 <name>GCR01C</name>
 <desc>CACHE DE LA CACHE by Know Future (1/1.5)</desc>
 <url>http://www.geocaching.com/seek/cache_details.aspx?guid=99d48ea6-4945-4ee9-a2e7-b6c4c3cb6e2f</url>
 <urlname>CACHE DE LA CACHE by Know Future</urlname>
 <sym>Geocache</sym>
 <type>Geocache|Traditional Cache</type>
</wpt>
<wpt lat="38.590050000" lon="-89.886983000"><time>2005-10-15T00:00:00Z</time>
 <name>GCR01J</name>
 <desc>Deep in the Jungles of O' Town by nuclearmonkeys (2.5/2)</desc>
 <url>http://www.geocaching.com/seek/cache_details.aspx?guid=fffbe3af-0c43-418f-9ebe-22bab78c9dab</url>
 <urlname>Deep in the Jungles of O' Town by nuclearmonkeys</urlname>
 <sym>Geocache</sym>
 <type>Geocache|Traditional Cache</type>
</wpt>
<wpt lat="33.823317000" lon="-84.125817000"><time>2004-10-28T00:00:00Z</time>
 <name>GCKYCM</name>
 <desc>Wally's World #1 by Jeeptoysrus (1/1)</desc>
 <url>http://www.geocaching.com/seek/cache_details.aspx?guid=9e6905d8-b2a3-4993-86d2-9352d39efb95</url>
 <urlname>Wally's World #1 by Jeeptoysrus</urlname>
 <sym>Geocache</sym>
 <type>Geocache|Traditional Cache</type>
</wpt>
<wpt lat="33.884783000" lon="-84.248200000"><time>2004-05-24T00:00:00Z</time>
 <name>GCJHAD</name>
 <desc>Energize by rixart (2/2)</desc>
 <url>http://www.geocaching.com/seek/cache_details.aspx?guid=dc5f4b55-f762-41bc-833c-5070135408cc</url>
 <urlname>Energize by rixart</urlname>
 <sym>Geocache</sym>
 <type>Geocache|Unknown Cache</type>
</wpt>
<wpt lat="34.254467000" lon="-84.469467000"><time>2005-04-04T00:00:00Z</time>
 <name>GCNC0V</name>
 <desc>Barrelin' into Canton by Thorny1 (2/1.5)</desc>
 <url>http://www.geocaching.com/seek/cache_details.aspx?guid=e9cf24f8-97ba-4fd5-a7cc-949efd339ae1</url>
 <urlname>Barrelin' into Canton by Thorny1</urlname>
 <sym>Geocache</sym>
 <type>Geocache|Traditional Cache</type>
</wpt>
<wpt lat="33.792883000" lon="-84.002700000"><time>2004-08-19T00:00:00Z</time>
 <name>GCKAJX</name>
 <desc>Disc Golf One by Jeeptoysrus (2/2)</desc>
 <url>http://www.geocaching.com/seek/cache_details.aspx?guid=b18c8874-9bdd-4470-9230-55b33bf221a5</url>
 <urlname>Disc Golf One by Jeeptoysrus</urlname>
 <sym>Geocache</sym>
 <type>Geocache|Multi-cache</type>
</wpt>
<wpt lat="33.859417000" lon="-84.199050000"><time>2004-09-27T00:00:00Z</time>
 <name>GCKNCP</name>
 <desc>micro hive by Yellow Jacket (1.5/1)</desc>
 <url>http://www.geocaching.com/seek/cache_details.aspx?guid=6da025a8-e224-4b51-9595-3df5687bccad</url>
 <urlname>micro hive by Yellow Jacket</urlname>
 <sym>Geocache</sym>
 <type>Geocache|Traditional Cache</type>
</wpt>
<wpt lat="33.930917000" lon="-84.303700000"><time>2003-01-06T00:00:00Z</time>
 <name>GCC0C2</name>
 <desc><![CDATA[Brook Run Backwoods by JMTBuzz &amp; jmtbuzz_jr (1/2.5)]]></desc>
 <url>http://www.geocaching.com/seek/cache_details.aspx?guid=872e6418-51cf-43a9-8b78-b9cc2ee0ce5a</url>
 <urlname><![CDATA[Brook Run Backwoods by JMTBuzz &amp; jmtbuzz_jr]]></urlname>
 <sym>Geocache</sym>
 <type>Geocache|Traditional Cache</type>
</wpt>
<wpt lat="33.929500000" lon="-84.301667000"><time>2004-07-22T00:00:00Z</time>
 <name>GCK234</name>
 <desc>L'Chaim and a Shmear! by Team PEZ (1/1)</desc>
 <url>http://www.geocaching.com/seek/cache_details.aspx?guid=cfd503ef-45af-45ec-b20d-74aed7733f78</url>
 <urlname>L'Chaim and a Shmear! by Team PEZ</urlname>
 <sym>Geocache</sym>
 <type>Geocache|Unknown Cache</type>
</wpt>
<wpt lat="33.955433000" lon="-84.329450000"><time>2003-08-04T00:00:00Z</time>
 <name>GCGJH3</name>
 <desc>Present in Nature by fat_cat (2/2)</desc>
 <url>http://www.geocaching.com/seek/cache_details.aspx?guid=6d1005a8-d425-455a-8e24-e4120649b47d</url>
 <urlname>Present in Nature by fat_cat</urlname>
 <sym>Geocache</sym>
 <type>Geocache|Traditional Cache</type>
</wpt>
<wpt lat="34.006067000" lon="-84.374583000"><time>2005-01-03T00:00:00Z</time>
 <name>GCME0Y</name>
 <desc>Roswell Incident by Phidoux (2/4)</desc>
 <url>http://www.geocaching.com/seek/cache_details.aspx?guid=0df247a7-86be-48ff-9901-c6b601614049</url>
 <urlname>Roswell Incident by Phidoux</urlname>
 <sym>Geocache</sym>
 <type>Geocache|Traditional Cache</type>
</wpt>
<wpt lat="33.948217000" lon="-84.321300000"><time>2004-04-10T00:00:00Z</time>
 <name>GCJ568</name>
 <desc>Springtime in Dunwoody by wallclimber and watercub (1.5/2)</desc>
 <url>http://www.geocaching.com/seek/cache_details.aspx?guid=cde0e440-9ee1-4d53-b606-70bc02d6c3d7</url>
 <urlname>Springtime in Dunwoody by wallclimber and watercub</urlname>
 <sym>Geocache</sym>
 <type>Geocache|Traditional Cache</type>
</wpt>
<wpt lat="33.931900000" lon="-84.302517000"><time>2004-05-30T00:00:00Z</time>
 <name>GCJJMG</name>
 <desc>Brook Run Boardwalk by watercub (adopted by jmtbuzz_jr) (1.5/1)</desc>
 <url>http://www.geocaching.com/seek/cache_details.aspx?guid=f2b24faf-de7f-4ca2-b0be-7c8583907930</url>
 <urlname>Brook Run Boardwalk by watercub (adopted by jmtbuzz_jr)</urlname>
 <sym>Geocache</sym>
 <type>Geocache|Traditional Cache</type>
</wpt>
<wpt lat="34.738400000" lon="-83.970950000"><time>2003-11-22T00:00:00Z</time>
 <name>GCH8PK</name>
 <desc>Blind As A Bat by HKeller (2/2.5)</desc>
 <url>http://www.geocaching.com/seek/cache_details.aspx?guid=caba0195-a896-48c5-8772-9cef2470c998</url>
 <urlname>Blind As A Bat by HKeller</urlname>
 <sym>Geocache</sym>
 <type>Geocache|Unknown Cache</type>
</wpt>
<wpt lat="33.869333000" lon="-84.211600000"><time>2004-08-18T00:00:00Z</time>
 <name>GCKACY</name>
 <desc>Looking for Spot by uraca (1/1)</desc>
 <url>http://www.geocaching.com/seek/cache_details.aspx?guid=6eec64a5-1971-4e13-9161-3387e2746508</url>
 <urlname>Looking for Spot by uraca</urlname>
 <sym>Geocache</sym>
 <type>Geocache|Traditional Cache</type>
</wpt>
<wpt lat="33.915333000" lon="-84.280283000"><time>2005-05-15T00:00:00Z</time>
 <name>GCNY6A</name>
 <desc>Doraville Speed Trap by wxrnot (1.5/2)</desc>
 <url>http://www.geocaching.com/seek/cache_details.aspx?guid=d1146dab-6bd2-491b-9000-a8320ce527ff</url>
 <urlname>Doraville Speed Trap by wxrnot</urlname>
 <sym>Geocache</sym>
 <type>Geocache|Traditional Cache</type>
</wpt>
<wpt lat="34.536483000" lon="-83.410850000"><time>2003-03-15T00:00:00Z</time>
 <name>GCE572</name>
 <desc><![CDATA[Davis Mill Cache by Allen &amp; Robert of Lacy Family (2/3.5)]]></desc>
 <url>http://www.geocaching.com/seek/cache_details.aspx?guid=22dcbfe0-d555-4841-91df-83338d4ace46</url>
 <urlname><![CDATA[Davis Mill Cache by Allen &amp; Robert of Lacy Family]]></urlname>
 <sym>Geocache</sym>
 <type>Geocache|Traditional Cache</type>
</wpt>
<wpt lat="34.739800000" lon="-83.937367000"><time>2003-06-01T00:00:00Z</time>
 <name>GCG75V</name>
 <desc>Blood Mountain Micro by Superdogs (2/2.5)</desc>
 <url>http://www.geocaching.com/seek/cache_details.aspx?guid=8fc5f6da-cd3a-4131-a1bc-e5590d5f1f54</url>
 <urlname>Blood Mountain Micro by Superdogs</urlname>
 <sym>Geocache</sym>
 <type>Geocache|Traditional Cache</type>
</wpt>
<wpt lat="34.062650000" lon="-84.408050000"><time>2005-05-29T00:00:00Z</time>
 <name>GCP34D</name>
 <desc>Harry Blackstone: Now You See It, Now You Don't by Team Moose (4.5/1.5)</desc>
 <url>http://www.geocaching.com/seek/cache_details.aspx?guid=f2d203fa-5ac6-4a61-a566-414bad3a3975</url>
 <urlname>Harry Blackstone: Now You See It, Now You Don't by Team Moose</urlname>
 <sym>Geocache</sym>
 <type>Geocache|Unknown Cache</type>
</wpt>
<wpt lat="34.258567000" lon="-84.462800000"><time>2004-07-25T00:00:00Z</time>
 <name>GCK38R</name>
 <desc>Who...Who...Who 'der?: Canton by Team Thorny (1/1)</desc>
 <url>http://www.geocaching.com/seek/cache_details.aspx?guid=beaac043-6b54-4322-9bd4-a40e9c9c6649</url>
 <urlname>Who...Who...Who 'der?: Canton by Team Thorny</urlname>
 <sym>Geocache</sym>
 <type>Geocache|Traditional Cache</type>
</wpt>
<wpt lat="33.981833000" lon="-84.349267000"><time>2003-10-03T00:00:00Z</time>
 <name>GCH08J</name>
 <desc>#550?  It's for you.. by ChazCone (1/1)</desc>
 <url>http://www.geocaching.com/seek/cache_details.aspx?guid=8f2f90c1-88cc-4924-8533-7653385e43ed</url>
 <urlname>#550?  It's for you.. by ChazCone</urlname>
 <sym>Geocache</sym>
 <type>Geocache|Traditional Cache</type>
</wpt>
<wpt lat="34.062950000" lon="-84.407500000"><time>2003-11-09T00:00:00Z</time>
 <name>GCH6XK</name>
 <desc>Got Pi ? by The Yoyo Man (3/2.5)</desc>
 <url>http://www.geocaching.com/seek/cache_details.aspx?guid=7bcc4075-d2b9-4502-911b-20a0aef4f020</url>
 <urlname>Got Pi ? by The Yoyo Man</urlname>
 <sym>Geocache</sym>
 <type>Geocache|Unknown Cache</type>
</wpt>
<wpt lat="34.030633000" lon="-83.387100000"><time>2001-10-13T00:00:00Z</time>
 <name>GC220E</name>
 <desc>BSA Gold Rush by erik (1/2)</desc>
 <url>http://www.geocaching.com/seek/cache_details.aspx?guid=c57ca622-abca-48b5-b146-aa7399844d6e</url>
 <urlname>BSA Gold Rush by erik</urlname>
 <sym>Geocache</sym>
 <type>Geocache|Traditional Cache</type>
</wpt>
<wpt lat="33.934717000" lon="-84.299667000"><time>2004-10-25T00:00:00Z</time>
 <name>GCKW3P</name>
 <desc>Old McDonald Had A Farm by abeishline (2/1.5)</desc>
 <url>http://www.geocaching.com/seek/cache_details.aspx?guid=7c9a6f26-e9f8-4bfa-9b8a-3ec5e7d058ac</url>
 <urlname>Old McDonald Had A Farm by abeishline</urlname>
 <sym>Geocache</sym>
 <type>Geocache|Traditional Cache</type>
</wpt>
<wpt lat="33.909633000" lon="-84.267300000"><time>2004-09-25T00:00:00Z</time>
 <name>GCKMYN</name>
 <desc>Value Magnolia by uraca (1.5/1.5)</desc>
 <url>http://www.geocaching.com/seek/cache_details.aspx?guid=b9ad1d89-8cbd-4ca3-84db-3723f54a4b12</url>
 <urlname>Value Magnolia by uraca</urlname>
 <sym>Geocache</sym>
 <type>Geocache|Traditional Cache</type>
</wpt>
<wpt lat="33.825450000" lon="-84.097767000"><time>2005-03-28T00:00:00Z</time>
 <name>GCN71J</name>
 <desc>It's a Quik Stop by Baptist Deacon (1/1.5)</desc>
 <url>http://www.geocaching.com/seek/cache_details.aspx?guid=a666cdd2-04cd-4d1e-bcbf-14afc356c42b</url>
 <urlname>It's a Quik Stop by Baptist Deacon</urlname>
 <sym>Geocache</sym>
 <type>Geocache|Traditional Cache</type>
</wpt>
<wpt lat="34.736100000" lon="-83.928550000"><time>2001-05-10T00:00:00Z</time>
 <name>GC915</name>
 <desc>Blood Mountain by byoung57 (3/3.5)</desc>
 <url>http://www.geocaching.com/seek/cache_details.aspx?guid=6072475c-4b29-4161-bce7-e45cc72e3b1b</url>
 <urlname>Blood Mountain by byoung57</urlname>
 <sym>Geocache</sym>
 <type>Geocache|Traditional Cache</type>
</wpt>
<wpt lat="34.064767000" lon="-84.403933000"><time>2005-05-01T00:00:00Z</time>
 <name>GCNKM3</name>
 <desc><![CDATA[Harry Houdini's Treasure Box by Marietta Moose &amp; Team PEZ (3.5/1.5)]]></desc>
 <url>http://www.geocaching.com/seek/cache_details.aspx?guid=18a6f151-306a-44a1-9f59-a87c82f62b4d</url>
 <urlname><![CDATA[Harry Houdini's Treasure Box by Marietta Moose &amp; Team PEZ]]></urlname>
 <sym>Geocache</sym>
 <type>Geocache|Unknown Cache</type>
</wpt>
<wpt lat="33.882250000" lon="-84.221200000"><time>2005-02-07T00:00:00Z</time>
 <name>GCMQB0</name>
 <desc>Cloning by uraca (1.5/1.5)</desc>
 <url>http://www.geocaching.com/seek/cache_details.aspx?guid=1c514dab-6f40-4a16-983c-bb22880fe446</url>
 <urlname>Cloning by uraca</urlname>
 <sym>Geocache</sym>
 <type>Geocache|Traditional Cache</type>
</wpt>
<wpt lat="33.942500000" lon="-84.303300000"><time>2004-07-30T00:00:00Z</time>
 <name>GCK4HE</name>
 <desc>Educated Guess by wxrnot (2/1.5)</desc>
 <url>http://www.geocaching.com/seek/cache_details.aspx?guid=8a9666f2-bb2b-4270-8bc6-465e0d9d20f9</url>
 <urlname>Educated Guess by wxrnot</urlname>
 <sym>Geocache</sym>
 <type>Geocache|Multi-cache</type>
</wpt>
<wpt lat="34.068717000" lon="-84.405450000"><time>2003-08-26T00:00:00Z</time>
 <name>GCGR2E</name>
 <desc>Gotcha! by The Yoyo Man (5/2.5)</desc>
 <url>http://www.geocaching.com/seek/cache_details.aspx?guid=de6a3a68-2f98-4686-ac75-63d2c1680f7f</url>
 <urlname>Gotcha! by The Yoyo Man</urlname>
 <sym>Geocache</sym>
 <type>Geocache|Unknown Cache</type>
</wpt>
<wpt lat="33.891483000" lon="-84.234383000"><time>2005-02-05T00:00:00Z</time>
 <name>GCMPCA</name>
 <desc>Step Up To The Plate by uraca (1/1.5)</desc>
 <url>http://www.geocaching.com/seek/cache_details.aspx?guid=06bcbec4-4666-43bf-98a5-819036ab46d7</url>
 <urlname>Step Up To The Plate by uraca</urlname>
 <sym>Geocache</sym>
 <type>Geocache|Traditional Cache</type>
</wpt>
<wpt lat="33.867050000" lon="-84.190267000"><time>2003-05-19T00:00:00Z</time>
 <name>GCG4NE</name>
 <desc>Nesbit Project by Yellow Jacket (1.5/1)</desc>
 <url>http://www.geocaching.com/seek/cache_details.aspx?guid=26cc8f29-a94e-4473-865f-e6084c8136ad</url>
 <urlname>Nesbit Project by Yellow Jacket</urlname>
 <sym>Geocache</sym>
 <type>Geocache|Traditional Cache</type>
</wpt>
<wpt lat="33.815183000" lon="-84.049100000"><time>2003-12-12T00:00:00Z</time>
 <name>GCHBAC</name>
 <desc>Litter Box Micro by yjjohnston (1.5/1.5)</desc>
 <url>http://www.geocaching.com/seek/cache_details.aspx?guid=e54e2cce-a612-4ac8-9a26-690f99494873</url>
 <urlname>Litter Box Micro by yjjohnston</urlname>
 <sym>Geocache</sym>
 <type>Geocache|Traditional Cache</type>
</wpt>
<wpt lat="34.729133000" lon="-83.961300000"><time>2002-10-21T00:00:00Z</time>
 <name>GC9EF6</name>
 <desc>From Jarrard to Horsebone by GeorgiaHikes (3/4)</desc>
 <url>http://www.geocaching.com/seek/cache_details.aspx?guid=c089884d-e011-42e7-aadf-fc178adcce67</url>
 <urlname>From Jarrard to Horsebone by GeorgiaHikes</urlname>
 <sym>Geocache</sym>
 <type>Geocache|Traditional Cache</type>
</wpt>
<wpt lat="33.869000000" lon="-84.188833000"><time>2004-02-10T00:00:00Z</time>
 <name>GCHNJ2</name>
 <desc>Ultimate Puzzle Cache by Yellow Jacket (2/1)</desc>
 <url>http://www.geocaching.com/seek/cache_details.aspx?guid=4cbbf834-91bc-4dcb-b866-c69e5d90a1f5</url>
 <urlname>Ultimate Puzzle Cache by Yellow Jacket</urlname>
 <sym>Geocache</sym>
 <type>Geocache|Unknown Cache</type>
</wpt>
<wpt lat="34.003250000" lon="-84.355850000"><time>2001-11-10T00:00:00Z</time>
 <name>GC276C</name>
 <desc>Kayak~Kache by erik (1.5/4)</desc>
 <url>http://www.geocaching.com/seek/cache_details.aspx?guid=50d67746-f33a-44ef-8284-d9e75cc5f479</url>
 <urlname>Kayak~Kache by erik</urlname>
 <sym>Geocache</sym>
 <type>Geocache|Traditional Cache</type>
</wpt>
<wpt lat="33.844283000" lon="-84.134883000"><time>2004-02-24T00:00:00Z</time>
 <name>GCHRBQ</name>
 <desc>Lance's Lair by LanceGrail (2/2)</desc>
 <url>http://www.geocaching.com/seek/cache_details.aspx?guid=8cb19812-0384-4d0b-9f51-34dc50563f1e</url>
 <urlname>Lance's Lair by LanceGrail</urlname>
 <sym>Geocache</sym>
 <type>Geocache|Traditional Cache</type>
</wpt>
<wpt lat="34.672667000" lon="-84.164033000"><time>2004-04-08T00:00:00Z</time>
 <name>GCJ54T</name>
 <desc><![CDATA[Hickory Flat by Bandido Charlie &amp; Jump Steady (2/2)]]></desc>
 <url>http://www.geocaching.com/seek/cache_details.aspx?guid=d46091c5-49d0-453b-a24f-e7fd8d17490b</url>
 <urlname><![CDATA[Hickory Flat by Bandido Charlie &amp; Jump Steady]]></urlname>
 <sym>Geocache</sym>
 <type>Geocache|Traditional Cache</type>
</wpt>
<wpt lat="33.864783000" lon="-84.176550000"><time>2004-08-18T00:00:00Z</time>
 <name>GCKACR</name>
 <desc>Tiger Training by uraca (1/1)</desc>
 <url>http://www.geocaching.com/seek/cache_details.aspx?guid=219ea43c-370d-40b6-9529-74681fdbe656</url>
 <urlname>Tiger Training by uraca</urlname>
 <sym>Geocache</sym>
 <type>Geocache|Traditional Cache</type>
</wpt>
<wpt lat="34.666633000" lon="-84.170050000"><time>2003-12-31T00:00:00Z</time>
 <name>GCHDXJ</name>
 <desc><![CDATA[Long Creek Falls Cache by Cabinwood &amp; GillyCat (2/2.5)]]></desc>
 <url>http://www.geocaching.com/seek/cache_details.aspx?guid=3ded9f3b-91f2-4541-b820-bd23c0eca099</url>
 <urlname><![CDATA[Long Creek Falls Cache by Cabinwood &amp; GillyCat]]></urlname>
 <sym>Geocache</sym>
 <type>Geocache|Traditional Cache</type>
</wpt>
<wpt lat="33.832033000" lon="-84.091383000"><time>2004-09-13T00:00:00Z</time>
 <name>GCKHZT</name>
 <desc>Opossum Lake Cache by MaurLady (1/1)</desc>
 <url>http://www.geocaching.com/seek/cache_details.aspx?guid=babade76-df96-45a4-9c3f-78e1089f837f</url>
 <urlname>Opossum Lake Cache by MaurLady</urlname>
 <sym>Geocache</sym>
 <type>Geocache|Traditional Cache</type>
</wpt>
<wpt lat="34.726250000" lon="-83.828250000"><time>2003-11-22T00:00:00Z</time>
 <name>GCH8P5</name>
 <desc>RR Overlook by phat.bak (1/1)</desc>
 <url>http://www.geocaching.com/seek/cache_details.aspx?guid=c6c15d1f-29e6-490d-bde9-c19bada98e7d</url>
 <urlname>RR Overlook by phat.bak</urlname>
 <sym>Geocache</sym>
 <type>Geocache|Virtual Cache</type>
</wpt>
<wpt lat="33.990467000" lon="-84.339017000"><time>2004-08-06T00:00:00Z</time>
 <name>GCK6KP</name>
 <desc>Alpharetta Autobahn Overlook by SpiderWebbs (1.5/1)</desc>
 <url>http://www.geocaching.com/seek/cache_details.aspx?guid=fe7692e4-f18e-4822-acfa-66022622cf70</url>
 <urlname>Alpharetta Autobahn Overlook by SpiderWebbs</urlname>
 <sym>Geocache</sym>
 <type>Geocache|Traditional Cache</type>
</wpt>
<wpt lat="34.015183000" lon="-84.359100000"><time>2001-10-01T00:00:00Z</time>
 <name>GC2001</name>
 <desc>Roswell Manufacturing Company by CharlieP (2/2)</desc>
 <url>http://www.geocaching.com/seek/cache_details.aspx?guid=42745d2e-9fff-4b86-876a-43378dda9971</url>
 <urlname>Roswell Manufacturing Company by CharlieP</urlname>
 <sym>Geocache</sym>
 <type>Geocache|Multi-cache</type>
</wpt>
<wpt lat="34.017167000" lon="-84.358833000"><time>2004-03-04T00:00:00Z</time>
 <name>GCHV9F</name>
 <desc>The Ox,The Troll and Jake by jojoand david (3/2.5)</desc>
 <url>http://www.geocaching.com/seek/cache_details.aspx?guid=18a26d92-11d9-4415-8c06-e5e2b9773355</url>
 <urlname>The Ox,The Troll and Jake by jojoand david</urlname>
 <sym>Geocache</sym>
 <type>Geocache|Multi-cache</type>
</wpt>
<wpt lat="33.881400000" lon="-84.198517000"><time>2004-07-14T00:00:00Z</time>
 <name>GCJZX0</name>
 <desc>My First Lucky Cache by Vacacheon (1/1.5)</desc>
 <url>http://www.geocaching.com/seek/cache_details.aspx?guid=3255c868-78b9-4e6f-a9b3-4cb6db71b26e</url>
 <urlname>My First Lucky Cache by Vacacheon</urlname>
 <sym>Geocache</sym>
 <type>Geocache|Traditional Cache</type>
</wpt>
<wpt lat="34.023850000" lon="-84.363250000"><time>2005-03-03T00:00:00Z</time>
 <name>GCMZV6</name>
 <desc>Night Cache #8 (Road Access Terminated) by TRAM (1/1.5)</desc>
 <url>http://www.geocaching.com/seek/cache_details.aspx?guid=c340be45-a0aa-4b8f-943f-e768ae5183d1</url>
 <urlname>Night Cache #8 (Road Access Terminated) by TRAM</urlname>
 <sym>Geocache</sym>
 <type>Geocache|Traditional Cache</type>
</wpt>
<wpt lat="34.664133000" lon="-84.168367000"><time>2003-09-18T00:00:00Z</time>
 <name>GCGXVP</name>
 <desc>Big Poplar by Bandido Charlie and Jump Steady (1.5/2)</desc>
 <url>http://www.geocaching.com/seek/cache_details.aspx?guid=75b4fee5-89f0-4c39-86b7-9ad2bd61edb4</url>
 <urlname>Big Poplar by Bandido Charlie and Jump Steady</urlname>
 <sym>Geocache</sym>
 <type>Geocache|Traditional Cache</type>
</wpt>
<wpt lat="33.846267000" lon="-84.120500000"><time>2004-10-04T00:00:00Z</time>
 <name>GCKQDP</name>
 <desc>Enough Is Enough by geomuse (4/1.5)</desc>
 <url>http://www.geocaching.com/seek/cache_details.aspx?guid=ad7f4864-2c52-4004-9157-c4e585452e66</url>
 <urlname>Enough Is Enough by geomuse</urlname>
 <sym>Geocache</sym>
 <type>Geocache|Multi-cache</type>
</wpt>
<wpt lat="34.005667000" lon="-84.346633000"><time>2003-01-14T00:00:00Z</time>
 <name>GCC45C</name>
 <desc>Chameleon Sphere From Flatland by LazerBlazer (adopted by CharlieP) (2/1)</desc>
 <url>http://www.geocaching.com/seek/cache_details.aspx?guid=3f1277b6-8d0e-456e-9ece-7a921ff6315d</url>
 <urlname>Chameleon Sphere From Flatland by LazerBlazer (adopted by CharlieP)</urlname>
 <sym>Geocache</sym>
 <type>Geocache|Traditional Cache</type>
</wpt>
<wpt lat="33.958917000" lon="-84.301000000"><time>2004-01-09T00:00:00Z</time>
 <name>GCHFR7</name>
 <desc>Between A Block And A Homeplace by JMTBuzz (2/1)</desc>
 <url>http://www.geocaching.com/seek/cache_details.aspx?guid=79302282-6e52-42ce-a151-97696b86d530</url>
 <urlname>Between A Block And A Homeplace by JMTBuzz</urlname>
 <sym>Geocache</sym>
 <type>Geocache|Traditional Cache</type>
</wpt>
<wpt lat="34.677833000" lon="-84.129533000"><time>2002-12-06T00:00:00Z</time>
 <name>GCB21F</name>
 <desc>Rock Lake by Trez003 (1.5/1.5)</desc>
 <url>http://www.geocaching.com/seek/cache_details.aspx?guid=802798d3-6073-48fa-a2b7-6b297cbfd127</url>
 <urlname>Rock Lake by Trez003</urlname>
 <sym>Geocache</sym>
 <type>Geocache|Traditional Cache</type>
</wpt>
<wpt lat="33.960533000" lon="-84.301533000"><time>2004-11-03T00:00:00Z</time>
 <name>GCKZWX</name>
 <desc><![CDATA[Publix Enemy Orchard Park by JMTBuzz &amp; jmtbuzz_jr (1/1)]]></desc>
 <url>http://www.geocaching.com/seek/cache_details.aspx?guid=c29a99df-ccfd-4862-8418-e11177b303cf</url>
 <urlname><![CDATA[Publix Enemy Orchard Park by JMTBuzz &amp; jmtbuzz_jr]]></urlname>
 <sym>Geocache</sym>
 <type>Geocache|Traditional Cache</type>
</wpt>
<wpt lat="33.847083000" lon="-84.114533000"><time>2002-12-31T00:00:00Z</time>
 <name>GCBBB8</name>
 <desc>Hambone's Cache by John_D and Dogdoins (2/2)</desc>
 <url>http://www.geocaching.com/seek/cache_details.aspx?guid=3b73cd84-b600-4768-978a-2d7cf95fd540</url>
 <urlname>Hambone's Cache by John_D and Dogdoins</urlname>
 <sym>Geocache</sym>
 <type>Geocache|Traditional Cache</type>
</wpt>
<wpt lat="34.059567000" lon="-84.381800000"><time>2005-08-23T00:00:00Z</time>
 <name>GCQ8V4</name>
 <desc>Taco Mac in Roswell by EPOP and VIOLET (1/1)</desc>
 <url>http://www.geocaching.com/seek/cache_details.aspx?guid=8fcd131a-029a-4028-b6f4-dcd73081bdf0</url>
 <urlname>Taco Mac in Roswell by EPOP and VIOLET</urlname>
 <sym>Geocache</sym>
 <type>Geocache|Traditional Cache</type>
</wpt>
<wpt lat="33.883700000" lon="-84.193533000"><time>2004-09-13T00:00:00Z</time>
 <name>GCKHYK</name>
 <desc>Darling Valve Neighbor by uraca (1.5/1)</desc>
 <url>http://www.geocaching.com/seek/cache_details.aspx?guid=e02a9a1f-5508-453c-964d-0e86e62d34e8</url>
 <urlname>Darling Valve Neighbor by uraca</urlname>
 <sym>Geocache</sym>
 <type>Geocache|Traditional Cache</type>
</wpt>
<wpt lat="33.941150000" lon="-84.277917000"><time>2003-08-17T00:00:00Z</time>
 <name>GCGNPJ</name>
 <desc>Windwood Holler by JB (1.5/2)</desc>
 <url>http://www.geocaching.com/seek/cache_details.aspx?guid=cb1af5fa-ab5a-45bd-ada1-05684cc3db87</url>
 <urlname>Windwood Holler by JB</urlname>
 <sym>Geocache</sym>
 <type>Geocache|Traditional Cache</type>
</wpt>
<wpt lat="33.885767000" lon="-84.194317000"><time>2004-10-02T00:00:00Z</time>
 <name>GCKPQJ</name>
 <desc>Clueless Shopping 5 by uraca (1.5/1.5)</desc>
 <url>http://www.geocaching.com/seek/cache_details.aspx?guid=94842f13-98b7-4c5b-9f7f-79717556d68d</url>
 <urlname>Clueless Shopping 5 by uraca</urlname>
 <sym>Geocache</sym>
 <type>Geocache|Traditional Cache</type>
</wpt>
<wpt lat="34.720167000" lon="-83.916483000"><time>2001-02-04T00:00:00Z</time>
 <name>GC21E</name>
 <desc>DeSoto Falls Cache by Gene Garris and T.J. Bowers (3/3)</desc>
 <url>http://www.geocaching.com/seek/cache_details.aspx?guid=2c7779be-802c-4dd8-a39d-fb5742840fc7</url>
 <urlname>DeSoto Falls Cache by Gene Garris and T.J. Bowers</urlname>
 <sym>Geocache</sym>
 <type>Geocache|Traditional Cache</type>
</wpt>
<wpt lat="33.958483000" lon="-83.478900000"><time>2002-02-28T00:00:00Z</time>
 <name>GC3E54</name>
 <desc>Now You CDit, Now You DoNUT by GeorgiaGeoDude (2/1.5)</desc>
 <url>http://www.geocaching.com/seek/cache_details.aspx?guid=96201ddd-e5fb-4d73-99b2-2aa54068c06a</url>
 <urlname>Now You CDit, Now You DoNUT by GeorgiaGeoDude</urlname>
 <sym>Geocache</sym>
 <type>Geocache|Multi-cache</type>
</wpt>
<wpt lat="34.714533000" lon="-83.797333000"><time>2001-10-07T00:00:00Z</time>
 <name>GC2138</name>
 <desc>Raven Cliffs First Cache by mtn-man with mtn-woman and the puppymonster (3/3.5)</desc>
 <url>http://www.geocaching.com/seek/cache_details.aspx?guid=095cc065-8f87-4fa1-8a76-4ddb6438428e</url>
 <urlname>Raven Cliffs First Cache by mtn-man with mtn-woman and the puppymonster</urlname>
 <sym>Geocache</sym>
 <type>Geocache|Multi-cache</type>
</wpt>
<wpt lat="34.645000000" lon="-84.191167000"><time>2001-09-30T00:00:00Z</time>
 <name>GC1F90</name>
 <desc>Gilmer Cache by byoung57 (1/1.5)</desc>
 <url>http://www.geocaching.com/seek/cache_details.aspx?guid=6baa5914-6ac2-40cf-a3eb-4324a105ad7b</url>
 <urlname>Gilmer Cache by byoung57</urlname>
 <sym>Geocache</sym>
 <type>Geocache|Traditional Cache</type>
</wpt>
<wpt lat="34.037067000" lon="-84.362783000"><time>2004-10-14T00:00:00Z</time>
 <name>GCKMP3</name>
 <desc>3 points up by Hawkeye_Family (2/1.5)</desc>
 <url>http://www.geocaching.com/seek/cache_details.aspx?guid=5ffbfd4a-ef05-4ffe-b09f-6d64e04eff6a</url>
 <urlname>3 points up by Hawkeye_Family</urlname>
 <sym>Geocache</sym>
 <type>Geocache|Traditional Cache</type>
</wpt>
<wpt lat="34.663300000" lon="-84.148500000"><time>2004-01-23T00:00:00Z</time>
 <name>GCHJBF</name>
 <desc><![CDATA[Hawk West by Bandido Charlie &amp; Jump Steady (2.5/3)]]></desc>
 <url>http://www.geocaching.com/seek/cache_details.aspx?guid=0bf6d40f-7e43-4767-a0dc-7e5d32895b93</url>
 <urlname><![CDATA[Hawk West by Bandido Charlie &amp; Jump Steady]]></urlname>
 <sym>Geocache</sym>
 <type>Geocache|Traditional Cache</type>
</wpt>
<wpt lat="34.154967000" lon="-84.417067000"><time>2005-09-06T00:00:00Z</time>
 <name>GCQFY0</name>
 <desc>The Trail Blazing Brownies by Dataw Islanders (2/2.5)</desc>
 <url>http://www.geocaching.com/seek/cache_details.aspx?guid=50909c0b-26e5-4b7c-bbc8-41989c0b0104</url>
 <urlname>The Trail Blazing Brownies by Dataw Islanders</urlname>
 <sym>Geocache</sym>
 <type>Geocache|Traditional Cache</type>
</wpt>
<wpt lat="33.996767000" lon="-84.325800000"><time>2004-06-25T00:00:00Z</time>
 <name>GCJTG1</name>
 <desc>Undaunted Courage by ejldixie (2.5/1.5)</desc>
 <url>http://www.geocaching.com/seek/cache_details.aspx?guid=f99f633d-1409-4da9-9478-e17047ace6e2</url>
 <urlname>Undaunted Courage by ejldixie</urlname>
 <sym>Geocache</sym>
 <type>Geocache|Unknown Cache</type>
</wpt>
<wpt lat="34.713917000" lon="-83.914233000"><time>2003-10-09T00:00:00Z</time>
 <name>GCH1JD</name>
 <desc>Desoto Between  Falls by Jump Steady (2.5/2.5)</desc>
 <url>http://www.geocaching.com/seek/cache_details.aspx?guid=d4cb0c0d-34e7-4424-ac2c-aa2aba138062</url>
 <urlname>Desoto Between  Falls by Jump Steady</urlname>
 <sym>Geocache</sym>
 <type>Geocache|Traditional Cache</type>
</wpt>
<wpt lat="33.901917000" lon="-84.204533000"><time>2004-09-11T00:00:00Z</time>
 <name>GCKH7M</name>
 <desc>You Want International? by uraca (1.5/1)</desc>
 <url>http://www.geocaching.com/seek/cache_details.aspx?guid=76d0dbef-a29c-45a3-b5ee-f41fea4ed822</url>
 <urlname>You Want International? by uraca</urlname>
 <sym>Geocache</sym>
 <type>Geocache|Traditional Cache</type>
</wpt>
<wpt lat="33.879000000" lon="-84.159100000"><time>2004-12-11T00:00:00Z</time>
 <name>GCM8DK</name>
 <desc>Enter the Lion's Den by Jeeptoysrus (2/2)</desc>
 <url>http://www.geocaching.com/seek/cache_details.aspx?guid=8f9ff477-7bad-4850-95d3-44d8d3f0c452</url>
 <urlname>Enter the Lion's Den by Jeeptoysrus</urlname>
 <sym>Geocache</sym>
 <type>Geocache|Unknown Cache</type>
</wpt>
<wpt lat="33.880583000" lon="-84.159933000"><time>2005-07-09T00:00:00Z</time>
 <name>GCPMPH</name>
 <desc>Entrance to the Lion's Den by Jeeptoysrus (2/1.5)</desc>
 <url>http://www.geocaching.com/seek/cache_details.aspx?guid=3917d6e1-7631-47bc-bb7e-4a6db092e8ac</url>
 <urlname>Entrance to the Lion's Den by Jeeptoysrus</urlname>
 <sym>Geocache</sym>
 <type>Geocache|Traditional Cache</type>
</wpt>
<wpt lat="33.936100000" lon="-84.250367000"><time>2002-04-06T00:00:00Z</time>
 <name>GC4A0D</name>
 <desc>Lake Busbee by Keyseeker (3/1)</desc>
 <url>http://www.geocaching.com/seek/cache_details.aspx?guid=2ebf05ae-0797-41d2-8383-cc4d895d1ca2</url>
 <urlname>Lake Busbee by Keyseeker</urlname>
 <sym>Geocache</sym>
 <type>Geocache|Traditional Cache</type>
</wpt>
<wpt lat="34.062300000" lon="-84.365600000"><time>2002-06-30T00:00:00Z</time>
 <name>GC6AB2</name>
 <desc>Fat Man and Little Boy by jquinby (1/1)</desc>
 <url>http://www.geocaching.com/seek/cache_details.aspx?guid=d1462398-d3df-457c-a596-3c99e21750d0</url>
 <urlname>Fat Man and Little Boy by jquinby</urlname>
 <sym>Geocache</sym>
 <type>Geocache|Virtual Cache</type>
</wpt>
<wpt lat="34.684467000" lon="-83.708700000"><time>2003-06-20T00:00:00Z</time>
 <name>GCGA9E</name>
 <desc>Helendorff by phat.bak (2/3)</desc>
 <url>http://www.geocaching.com/seek/cache_details.aspx?guid=4b857d06-92ad-4fc7-9699-377d2b44e966</url>
 <urlname>Helendorff by phat.bak</urlname>
 <sym>Geocache</sym>
 <type>Geocache|Multi-cache</type>
</wpt>
<wpt lat="34.290850000" lon="-84.424100000"><time>2004-03-21T00:00:00Z</time>
 <name>GCHZNJ</name>
 <desc>HAZCACHE by CSAR (1/1.5)</desc>
 <url>http://www.geocaching.com/seek/cache_details.aspx?guid=e8060c87-6ec6-4ed4-b45d-98e530f9fbac</url>
 <urlname>HAZCACHE by CSAR</urlname>
 <sym>Geocache</sym>
 <type>Geocache|Traditional Cache</type>
</wpt>
<wpt lat="33.822350000" lon="-83.923167000"><time>2003-08-04T00:00:00Z</time>
 <name>GCG8PM</name>
 <desc>P.I.T.A. Puzzle Number Seven by Pendulum (5/1)</desc>
 <url>http://www.geocaching.com/seek/cache_details.aspx?guid=eb465f9f-d860-4439-ac47-9a3f5d39a457</url>
 <urlname>P.I.T.A. Puzzle Number Seven by Pendulum</urlname>
 <sym>Geocache</sym>
 <type>Geocache|Traditional Cache</type>
</wpt>
<wpt lat="33.916667000" lon="-84.216667000"><time>2005-07-19T00:00:00Z</time>
 <name>GCPRY9</name>
 <desc>Huluvu by rixart (1.5/1.5)</desc>
 <url>http://www.geocaching.com/seek/cache_details.aspx?guid=b55144b8-6505-4397-bfed-20fe8bac14a7</url>
 <urlname>Huluvu by rixart</urlname>
 <sym>Geocache</sym>
 <type>Geocache|Unknown Cache</type>
</wpt>
<wpt lat="34.487167000" lon="-83.424150000"><time>2001-12-06T00:00:00Z</time>
 <name>GC2B74</name>
 <desc>Soapstone Mountain by The Lacy Family (2.5/2.5)</desc>
 <url>http://www.geocaching.com/seek/cache_details.aspx?guid=61f5e6d5-f45c-4039-bdbb-1fc4e7278642</url>
 <urlname>Soapstone Mountain by The Lacy Family</urlname>
 <sym>Geocache</sym>
 <type>Geocache|Traditional Cache</type>
</wpt>
<wpt lat="34.698683000" lon="-83.787033000"><time>2001-01-14T00:00:00Z</time>
 <name>GC16D</name>
 <desc>Dukes Creek Falls Cache by T. Jess Bowers and Gene Garris (1/1.5)</desc>
 <url>http://www.geocaching.com/seek/cache_details.aspx?guid=9f851219-0bd2-4248-aad8-9caa66fc4ddf</url>
 <urlname>Dukes Creek Falls Cache by T. Jess Bowers and Gene Garris</urlname>
 <sym>Geocache</sym>
 <type>Geocache|Traditional Cache</type>
</wpt>
<wpt lat="34.030417000" lon="-84.339050000"><time>2004-09-26T00:00:00Z</time>
 <name>GCKN6N</name>
 <desc>Who...Who...Who 'der? #6: Roswell by Thorny1 (1/1)</desc>
 <url>http://www.geocaching.com/seek/cache_details.aspx?guid=7eee1a7a-8e88-4a20-8e6d-845f7cd66896</url>
 <urlname>Who...Who...Who 'der? #6: Roswell by Thorny1</urlname>
 <sym>Geocache</sym>
 <type>Geocache|Traditional Cache</type>
</wpt>
<wpt lat="34.040567000" lon="-84.346000000"><time>2005-02-24T00:00:00Z</time>
 <name>GCMXME</name>
 <desc>Publix Enemy - NBC by Kat6 (1/1.5)</desc>
 <url>http://www.geocaching.com/seek/cache_details.aspx?guid=ac29e089-8b86-4601-bc16-4a9572d76e65</url>
 <urlname>Publix Enemy - NBC by Kat6</urlname>
 <sym>Geocache</sym>
 <type>Geocache|Traditional Cache</type>
</wpt>
<wpt lat="34.608717000" lon="-84.219600000"><time>2004-08-01T00:00:00Z</time>
 <name>GCK5H7</name>
 <desc>Forest Rescue by roveron (3/4.5)</desc>
 <url>http://www.geocaching.com/seek/cache_details.aspx?guid=005d5032-5d8a-4788-bc31-4a071e992e6b</url>
 <urlname>Forest Rescue by roveron</urlname>
 <sym>Geocache</sym>
 <type>Geocache|Multi-cache</type>
</wpt>
<wpt lat="34.505533000" lon="-84.333117000"><time>2005-04-03T00:00:00Z</time>
 <name>GCNBE4</name>
 <desc>No Mo Monument by georgiabuddy (2/3.5)</desc>
 <url>http://www.geocaching.com/seek/cache_details.aspx?guid=bd458eac-acc4-45ce-9430-cf7fec1e6fcb</url>
 <urlname>No Mo Monument by georgiabuddy</urlname>
 <sym>Geocache</sym>
 <type>Geocache|Traditional Cache</type>
</wpt>
<wpt lat="34.116033000" lon="-84.387000000"><time>2005-08-05T00:00:00Z</time>
 <name>GCQ14F</name>
 <desc>The Happiest Ammo Can Ever! by Happy Hiking Hogans (1.5/1)</desc>
 <url>http://www.geocaching.com/seek/cache_details.aspx?guid=38770c11-4ce9-4220-ac05-d2fbbde50db8</url>
 <urlname>The Happiest Ammo Can Ever! by Happy Hiking Hogans</urlname>
 <sym>Geocache</sym>
 <type>Geocache|Traditional Cache</type>
</wpt>
<wpt lat="34.598483000" lon="-84.233133000"><time>2001-10-14T00:00:00Z</time>
 <name>GC1842</name>
 <desc>High Shoals Old Coins Cache by Lacy Family (1/3.5)</desc>
 <url>http://www.geocaching.com/seek/cache_details.aspx?guid=e3bb931c-b351-4d25-be74-e3752e468f19</url>
 <urlname>High Shoals Old Coins Cache by Lacy Family</urlname>
 <sym>Geocache</sym>
 <type>Geocache|Traditional Cache</type>
</wpt>
<wpt lat="34.614700000" lon="-84.207383000"><time>2004-02-13T00:00:00Z</time>
 <name>GCHP0B</name>
 <desc>Black Mountain by Hannah and the Owl (2/3.5)</desc>
 <url>http://www.geocaching.com/seek/cache_details.aspx?guid=b90a43f6-f028-4424-9927-55052c72d1f9</url>
 <urlname>Black Mountain by Hannah and the Owl</urlname>
 <sym>Geocache</sym>
 <type>Geocache|Traditional Cache</type>
</wpt>
<wpt lat="34.042533000" lon="-84.343833000"><time>2005-02-23T00:00:00Z</time>
 <name>GCMX40</name>
 <desc>The Scribe's Houze by TeamMelted (AirLux / Doby45) (3/1.5)</desc>
 <url>http://www.geocaching.com/seek/cache_details.aspx?guid=5ec8c77d-676b-4a17-82bf-4c334ebd09fb</url>
 <urlname>The Scribe's Houze by TeamMelted (AirLux / Doby45)</urlname>
 <sym>Geocache</sym>
 <type>Geocache|Traditional Cache</type>
</wpt>
<wpt lat="34.590000000" lon="-84.242133000"><time>2002-11-12T00:00:00Z</time>
 <name>GCA7E4</name>
 <desc>Uncle Mateson by Pendulum (1/4)</desc>
 <url>http://www.geocaching.com/seek/cache_details.aspx?guid=ecded31f-765c-4cc4-bda5-70e7a77c6cd4</url>
 <urlname>Uncle Mateson by Pendulum</urlname>
 <sym>Geocache</sym>
 <type>Geocache|Traditional Cache</type>
</wpt>
<wpt lat="33.888783000" lon="-84.157617000"><time>2005-02-19T00:00:00Z</time>
 <name>GCMVJF</name>
 <desc>Goodwill Hunting Alligator by uraca (1/1)</desc>
 <url>http://www.geocaching.com/seek/cache_details.aspx?guid=74d28396-3dd4-4239-8471-de8907111605</url>
 <urlname>Goodwill Hunting Alligator by uraca</urlname>
 <sym>Geocache</sym>
 <type>Geocache|Traditional Cache</type>
</wpt>
<wpt lat="34.687733000" lon="-84.022583000"><time>2005-07-31T00:00:00Z</time>
 <name>GCPYYP</name>
 <desc><![CDATA[Two Wheel Fun by grizzette &amp; the beaver (1/1)]]></desc>
 <url>http://www.geocaching.com/seek/cache_details.aspx?guid=8d64818a-5d4a-41c7-a3a1-a5c836c9a8a3</url>
 <urlname><![CDATA[Two Wheel Fun by grizzette &amp; the beaver]]></urlname>
 <sym>Geocache</sym>
 <type>Geocache|Traditional Cache</type>
</wpt>
<wpt lat="34.608567000" lon="-84.214300000"><time>2003-01-31T00:00:00Z</time>
 <name>GCCD40</name>
 <desc>Tragedy by Trez003 (1/3.5)</desc>
 <url>http://www.geocaching.com/seek/cache_details.aspx?guid=30350dcd-d230-465b-9e56-7802ef339c7f</url>
 <urlname>Tragedy by Trez003</urlname>
 <sym>Geocache</sym>
 <type>Geocache|Virtual Cache</type>
</wpt>
<wpt lat="33.920400000" lon="-84.205950000"><time>2003-06-17T00:00:00Z</time>
 <name>GCGA4J</name>
 <desc>CCC(CCCC)CCCCCCCCC* by AndymanD (2.5/3)</desc>
 <url>http://www.geocaching.com/seek/cache_details.aspx?guid=c38564f7-a637-42e3-ac6a-6a765c33fba8</url>
 <urlname>CCC(CCCC)CCCCCCCCC* by AndymanD</urlname>
 <sym>Geocache</sym>
 <type>Geocache|Traditional Cache</type>
</wpt>
<wpt lat="33.842333000" lon="-84.007050000"><time>2001-03-25T00:00:00Z</time>
 <name>GC580</name>
 <desc>Snellville Stash by Ramness (2.5/1.5)</desc>
 <url>http://www.geocaching.com/seek/cache_details.aspx?guid=ac89484b-1de2-450c-bda6-3abd9953fce9</url>
 <urlname>Snellville Stash by Ramness</urlname>
 <sym>Geocache</sym>
 <type>Geocache|Traditional Cache</type>
</wpt>
<wpt lat="34.656650000" lon="-84.109500000"><time>2004-01-23T00:00:00Z</time>
 <name>GCHJBA</name>
 <desc>Horse Gap by Jump Steady (2/3.5)</desc>
 <url>http://www.geocaching.com/seek/cache_details.aspx?guid=b8b0f93e-5093-4dcb-bcc5-31d84099b257</url>
 <urlname>Horse Gap by Jump Steady</urlname>
 <sym>Geocache</sym>
 <type>Geocache|Traditional Cache</type>
</wpt>
<wpt lat="33.844733000" lon="-84.012583000"><time>2004-10-31T00:00:00Z</time>
 <name>GCKZ23</name>
 <desc>Behind the Knowledge? by teamkfs (2/1.5)</desc>
 <url>http://www.geocaching.com/seek/cache_details.aspx?guid=c496d2a2-179a-4a30-8ccd-3beea59bc841</url>
 <urlname>Behind the Knowledge? by teamkfs</urlname>
 <sym>Geocache</sym>
 <type>Geocache|Traditional Cache</type>
</wpt>
<wpt lat="33.852017000" lon="-84.040017000"><time>2005-05-20T00:00:00Z</time>
 <name>GCP05X</name>
 <desc>Who...Who...Who 'der? #11: Snellville by Thorny1 (2/1)</desc>
 <url>http://www.geocaching.com/seek/cache_details.aspx?guid=04c5bbcf-31eb-455a-a4fd-3501dd7be9d4</url>
 <urlname>Who...Who...Who 'der? #11: Snellville by Thorny1</urlname>
 <sym>Geocache</sym>
 <type>Geocache|Traditional Cache</type>
</wpt>
<wpt lat="33.833933000" lon="-83.890467000"><time>2004-10-15T00:00:00Z</time>
 <name>GCKV5X</name>
 <desc>Recycler #3 ...Bingo! by Dougs94 and Linda (2/1.5)</desc>
 <url>http://www.geocaching.com/seek/cache_details.aspx?guid=9866ebb9-3dad-4913-9743-4d1577efed51</url>
 <urlname>Recycler #3 ...Bingo! by Dougs94 and Linda</urlname>
 <sym>Geocache</sym>
 <type>Geocache|Multi-cache</type>
</wpt>
<wpt lat="33.997833000" lon="-84.294667000"><time>2004-08-07T00:00:00Z</time>
 <name>GCK6YA</name>
 <desc>Night Cache # 4 (Snake Eyes) by GA Cacher and Tram (1.5/1.5)</desc>
 <url>http://www.geocaching.com/seek/cache_details.aspx?guid=27034f4a-19c6-4118-9fc6-a5e1e02d1208</url>
 <urlname>Night Cache # 4 (Snake Eyes) by GA Cacher and Tram</urlname>
 <sym>Geocache</sym>
 <type>Geocache|Traditional Cache</type>
</wpt>
<wpt lat="33.868400000" lon="-84.089200000"><time>2005-07-29T00:00:00Z</time>
 <name>GCPY0Q</name>
 <desc>The Old Rugged Cross by iamstarfox and spaghetti2911 (2/1.5)</desc>
 <url>http://www.geocaching.com/seek/cache_details.aspx?guid=e5209233-e2f8-47de-9f0d-4780703fe29b</url>
 <urlname>The Old Rugged Cross by iamstarfox and spaghetti2911</urlname>
 <sym>Geocache</sym>
 <type>Geocache|Traditional Cache</type>
</wpt>
<wpt lat="33.999317000" lon="-84.295400000"><time>2005-06-13T00:00:00Z</time>
 <name>GCP9Z2</name>
 <desc>Mug-A-Bug by bluprizm (2/2)</desc>
 <url>http://www.geocaching.com/seek/cache_details.aspx?guid=1c55d0ff-4687-4f44-859a-3a3f46e0d5db</url>
 <urlname>Mug-A-Bug by bluprizm</urlname>
 <sym>Geocache</sym>
 <type>Geocache|Multi-cache</type>
</wpt>
<wpt lat="33.969167000" lon="-84.260833000"><time>2005-01-15T00:00:00Z</time>
 <name>GCMGKX</name>
 <desc>Card Cache by 4 DUCKS (2/3)</desc>
 <url>http://www.geocaching.com/seek/cache_details.aspx?guid=94bd14a3-da0c-4a8b-95ab-74283d5af32d</url>
 <urlname>Card Cache by 4 DUCKS</urlname>
 <sym>Geocache</sym>
 <type>Geocache|Traditional Cache</type>
</wpt>
<wpt lat="33.888450000" lon="-84.132800000"><time>2004-08-30T00:00:00Z</time>
 <name>GCKDWY</name>
 <desc>My Cohort Walks by uraca (1/1.5)</desc>
 <url>http://www.geocaching.com/seek/cache_details.aspx?guid=852a6702-8a9c-4db0-aa2a-85ebcfd8e6fa</url>
 <urlname>My Cohort Walks by uraca</urlname>
 <sym>Geocache</sym>
 <type>Geocache|Traditional Cache</type>
</wpt>
<wpt lat="34.691383000" lon="-83.891483000"><time>2002-11-01T00:00:00Z</time>
 <name>GCA30B</name>
 <desc>Ben's Boggs Creek Bonanza by Mictlan, bbotzong and loLA (1.5/1.5)</desc>
 <url>http://www.geocaching.com/seek/cache_details.aspx?guid=9ed2b26d-9aa3-4553-b3a8-c6ecafe5a578</url>
 <urlname>Ben's Boggs Creek Bonanza by Mictlan, bbotzong and loLA</urlname>
 <sym>Geocache</sym>
 <type>Geocache|Traditional Cache</type>
</wpt>
<wpt lat="33.856533000" lon="-84.037017000"><time>2004-12-29T00:00:00Z</time>
 <name>GCMBZG</name>
 <desc>Snailville Micro by Jeeptoysrus (1.5/1)</desc>
 <url>http://www.geocaching.com/seek/cache_details.aspx?guid=6803ce48-a0b1-47f3-ae45-bb4bb7ea4fa8</url>
 <urlname>Snailville Micro by Jeeptoysrus</urlname>
 <sym>Geocache</sym>
 <type>Geocache|Traditional Cache</type>
</wpt>
<wpt lat="34.044200000" lon="-84.327583000"><time>2004-06-22T00:00:00Z</time>
 <name>GCJRQP</name>
 <desc>OVERLOOKed Pond by joebids (1.5/1)</desc>
 <url>http://www.geocaching.com/seek/cache_details.aspx?guid=734acab9-9b8f-4250-96cf-91a49936e709</url>
 <urlname>OVERLOOKed Pond by joebids</urlname>
 <sym>Geocache</sym>
 <type>Geocache|Traditional Cache</type>
</wpt>
<wpt lat="34.004267000" lon="-84.293683000"><time>2005-08-14T00:00:00Z</time>
 <name>GCQ4PR</name>
 <desc>Memories of Cheeseburgers by GA Cacher (1/1)</desc>
 <url>http://www.geocaching.com/seek/cache_details.aspx?guid=c17d110b-d29a-42c6-8a91-f11a1fd8da96</url>
 <urlname>Memories of Cheeseburgers by GA Cacher</urlname>
 <sym>Geocache</sym>
 <type>Geocache|Traditional Cache</type>
</wpt>
<wpt lat="33.969383000" lon="-84.257000000"><time>2005-07-05T00:00:00Z</time>
 <name>GCPK2R</name>
 <desc>BOWLED OVER by striker10 (1/1)</desc>
 <url>http://www.geocaching.com/seek/cache_details.aspx?guid=345fa460-2730-4b08-b941-543585a91aaa</url>
 <urlname>BOWLED OVER by striker10</urlname>
 <sym>Geocache</sym>
 <type>Geocache|Traditional Cache</type>
</wpt>
<wpt lat="34.005717000" lon="-84.294683000"><time>2005-02-24T00:00:00Z</time>
 <name>GCMXM9</name>
 <desc>Publix Enemy - Lighthouse by Kat6 (1/1.5)</desc>
 <url>http://www.geocaching.com/seek/cache_details.aspx?guid=e172a407-c3ac-4bb2-80db-abdca5543b4e</url>
 <urlname>Publix Enemy - Lighthouse by Kat6</urlname>
 <sym>Geocache</sym>
 <type>Geocache|Traditional Cache</type>
</wpt>
<wpt lat="33.950300000" lon="-84.232967000"><time>2005-05-10T00:00:00Z</time>
 <name>GCNW33</name>
 <desc>Aquire Your Target by bluprizm (1/1)</desc>
 <url>http://www.geocaching.com/seek/cache_details.aspx?guid=ce3ea38a-1100-4cd5-92f0-af71b35bd1a5</url>
 <urlname>Aquire Your Target by bluprizm</urlname>
 <sym>Geocache</sym>
 <type>Geocache|Traditional Cache</type>
</wpt>
<wpt lat="34.025800000" lon="-84.311033000"><time>2005-06-17T00:00:00Z</time>
 <name>GCPBCX</name>
 <desc>The Happiest Cat Cache Ever by Happy Hiking Hogans (2/2)</desc>
 <url>http://www.geocaching.com/seek/cache_details.aspx?guid=656720fb-d752-455e-8156-e1ace58ef0f6</url>
 <urlname>The Happiest Cat Cache Ever by Happy Hiking Hogans</urlname>
 <sym>Geocache</sym>
 <type>Geocache|Traditional Cache</type>
</wpt>
<wpt lat="34.567950000" lon="-84.245483000"><time>2003-02-26T00:00:00Z</time>
 <name>GCDB85</name>
 <desc>Amicalola Challenge by Trez003 (4/2)</desc>
 <url>http://www.geocaching.com/seek/cache_details.aspx?guid=802fda65-bda3-4151-ba37-5569b41c8ee0</url>
 <urlname>Amicalola Challenge by Trez003</urlname>
 <sym>Geocache</sym>
 <type>Geocache|Traditional Cache</type>
</wpt>
<wpt lat="33.910933000" lon="-84.168167000"><time>2005-05-30T00:00:00Z</time>
 <name>GCP47T</name>
 <desc>Mutism by uraca (1.5/1.5)</desc>
 <url>http://www.geocaching.com/seek/cache_details.aspx?guid=13824e51-028c-4a19-8c16-fdc5f52b0c15</url>
 <urlname>Mutism by uraca</urlname>
 <sym>Geocache</sym>
 <type>Geocache|Traditional Cache</type>
</wpt>
<wpt lat="34.677833000" lon="-83.999833000"><time>2004-07-21T00:00:00Z</time>
 <name>GCK209</name>
 <desc>Black Mountain Bonus by Hannah and the Owl (2.5/3)</desc>
 <url>http://www.geocaching.com/seek/cache_details.aspx?guid=3d809c42-c31e-4678-9d5b-28e729b0ce63</url>
 <urlname>Black Mountain Bonus by Hannah and the Owl</urlname>
 <sym>Geocache</sym>
 <type>Geocache|Multi-cache</type>
</wpt>
<wpt lat="33.952683000" lon="-84.231100000"><time>2005-05-06T00:00:00Z</time>
 <name>GCNTB1</name>
 <desc>Publix Enemy takes Centre Stage by Camper17 (1/1)</desc>
 <url>http://www.geocaching.com/seek/cache_details.aspx?guid=8d89d2d2-2cd4-4b41-a7e3-47c6954e8344</url>
 <urlname>Publix Enemy takes Centre Stage by Camper17</urlname>
 <sym>Geocache</sym>
 <type>Geocache|Traditional Cache</type>
</wpt>
<wpt lat="34.062067000" lon="-84.334717000"><time>2004-01-13T00:00:00Z</time>
 <name>GCHGGW</name>
 <desc>Getting Even... by Packer (3.5/2)</desc>
 <url>http://www.geocaching.com/seek/cache_details.aspx?guid=26b00eba-081f-4396-beeb-b2cf2b1fa370</url>
 <urlname>Getting Even... by Packer</urlname>
 <sym>Geocache</sym>
 <type>Geocache|Multi-cache</type>
</wpt>
<wpt lat="34.587117000" lon="-84.217450000"><time>2002-09-21T00:00:00Z</time>
 <name>GC93A1</name>
 <desc>Foote Steps by GeorgiaHikes (2/3.5)</desc>
 <url>http://www.geocaching.com/seek/cache_details.aspx?guid=d607d62a-1092-481e-83cc-67c738db78ba</url>
 <urlname>Foote Steps by GeorgiaHikes</urlname>
 <sym>Geocache</sym>
 <type>Geocache|Traditional Cache</type>
</wpt>
<wpt lat="34.039800000" lon="-84.318367000"><time>2005-01-22T00:00:00Z</time>
 <name>GCMJNP</name>
 <desc>The Gecko Meets Oldschool by MariettaGecko (2.5/1.5)</desc>
 <url>http://www.geocaching.com/seek/cache_details.aspx?guid=9cf5e328-ea55-4b12-8cb2-dde8687278d7</url>
 <urlname>The Gecko Meets Oldschool by MariettaGecko</urlname>
 <sym>Geocache</sym>
 <type>Geocache|Traditional Cache</type>
</wpt>
<wpt lat="34.674750000" lon="-84.005867000"><time>2004-07-21T00:00:00Z</time>
 <name>GCK20E</name>
 <desc>Return to Black Mountain by Hannah and the Owl (4.5/3.5)</desc>
 <url>http://www.geocaching.com/seek/cache_details.aspx?guid=a63b8e3c-9270-4b41-9f78-9d6a99967908</url>
 <urlname>Return to Black Mountain by Hannah and the Owl</urlname>
 <sym>Geocache</sym>
 <type>Geocache|Unknown Cache</type>
</wpt>
<wpt lat="34.042250000" lon="-84.319550000"><time>2005-03-03T00:00:00Z</time>
 <name>GCMZW2</name>
 <desc>Night Cache #9 (Busted) by TRAM (1/1.5)</desc>
 <url>http://www.geocaching.com/seek/cache_details.aspx?guid=aa3c8c30-28bc-48c5-93fb-7b1abe5471a2</url>
 <urlname>Night Cache #9 (Busted) by TRAM</urlname>
 <sym>Geocache</sym>
 <type>Geocache|Traditional Cache</type>
</wpt>
<wpt lat="33.986667000" lon="-84.269600000"><time>2005-06-12T00:00:00Z</time>
 <name>GCP9H1</name>
 <desc>Publix Enemy: Gastronome! by bluprizm (1/1)</desc>
 <url>http://www.geocaching.com/seek/cache_details.aspx?guid=1a8b165c-edfb-438b-b6ec-97000bc23048</url>
 <urlname>Publix Enemy: Gastronome! by bluprizm</urlname>
 <sym>Geocache</sym>
 <type>Geocache|Traditional Cache</type>
</wpt>
<wpt lat="34.672900000" lon="-84.010567000"><time>2004-07-21T00:00:00Z</time>
 <name>GCK203</name>
 <desc>Black Mountain Trail Cache by Hannah and the Owl (1.5/3)</desc>
 <url>http://www.geocaching.com/seek/cache_details.aspx?guid=fc686f6b-e718-47c8-8604-e771540134ca</url>
 <urlname>Black Mountain Trail Cache by Hannah and the Owl</urlname>
 <sym>Geocache</sym>
 <type>Geocache|Traditional Cache</type>
</wpt>
<wpt lat="33.855700000" lon="-84.003067000"><time>2004-10-31T00:00:00Z</time>
 <name>GCKZ1X</name>
 <desc>Walmart Turns to Gold by teamkfs (2/1.5)</desc>
 <url>http://www.geocaching.com/seek/cache_details.aspx?guid=8a4ab1d7-6719-4faa-9d55-2660c2ba12f6</url>
 <urlname>Walmart Turns to Gold by teamkfs</urlname>
 <sym>Geocache</sym>
 <type>Geocache|Unknown Cache</type>
</wpt>
<wpt lat="33.939017000" lon="-84.207433000"><time>2005-05-13T00:00:00Z</time>
 <name>GCNX6P</name>
 <desc>Fields of Stone by bluprizm (1/1)</desc>
 <url>http://www.geocaching.com/seek/cache_details.aspx?guid=d575e2b0-2be9-411a-b618-ac5a81935b96</url>
 <urlname>Fields of Stone by bluprizm</urlname>
 <sym>Geocache</sym>
 <type>Geocache|Traditional Cache</type>
</wpt>
<wpt lat="33.959550000" lon="-84.235517000"><time>2005-05-21T00:00:00Z</time>
 <name>GCP0CA</name>
 <desc>Parkway Alley by bluprizm (1/1)</desc>
 <url>http://www.geocaching.com/seek/cache_details.aspx?guid=a1a82fe2-5806-4bdb-a5d5-0a278fae5bdf</url>
 <urlname>Parkway Alley by bluprizm</urlname>
 <sym>Geocache</sym>
 <type>Geocache|Traditional Cache</type>
</wpt>
<wpt lat="33.943667000" lon="-84.213883000"><time>2003-12-29T00:00:00Z</time>
 <name>GCHDCF</name>
 <desc>Historic Norcross by watercub (adopted by jmtbuzz_jr) (1.5/1)</desc>
 <url>http://www.geocaching.com/seek/cache_details.aspx?guid=a941c62b-6bca-47b1-96d2-cf7e485c87de</url>
 <urlname>Historic Norcross by watercub (adopted by jmtbuzz_jr)</urlname>
 <sym>Geocache</sym>
 <type>Geocache|Traditional Cache</type>
</wpt>
<wpt lat="33.915083000" lon="-84.165600000"><time>2004-09-13T00:00:00Z</time>
 <name>GCKHYP</name>
 <desc>Meat Deliveries by uraca (1.5/1)</desc>
 <url>http://www.geocaching.com/seek/cache_details.aspx?guid=31d6193a-bc54-41d2-8800-350d58eed790</url>
 <urlname>Meat Deliveries by uraca</urlname>
 <sym>Geocache</sym>
 <type>Geocache|Traditional Cache</type>
</wpt>
<wpt lat="34.043933000" lon="-84.315750000"><time>2003-04-04T00:00:00Z</time>
 <name>GCF245</name>
 <desc>Lunch Break! #5- Another Errand by A Nord (1/1)</desc>
 <url>http://www.geocaching.com/seek/cache_details.aspx?guid=4dfaaf6d-4f91-43df-bea5-1089fa09f095</url>
 <urlname>Lunch Break! #5- Another Errand by A Nord</urlname>
 <sym>Geocache</sym>
 <type>Geocache|Traditional Cache</type>
</wpt>
<wpt lat="34.658183000" lon="-84.056583000"><time>2004-01-23T00:00:00Z</time>
 <name>GCHJBN</name>
 <desc><![CDATA[A.T./Long Mountain Trace by Bandido Charlie &amp; Jump Steady (3/3)]]></desc>
 <url>http://www.geocaching.com/seek/cache_details.aspx?guid=4d6dc436-6c29-4352-9f5b-b9a870379251</url>
 <urlname><![CDATA[A.T./Long Mountain Trace by Bandido Charlie &amp; Jump Steady]]></urlname>
 <sym>Geocache</sym>
 <type>Geocache|Traditional Cache</type>
</wpt>
<wpt lat="33.920683000" lon="-84.168533000"><time>2005-03-26T00:00:00Z</time>
 <name>GCN7TQ</name>
 <desc>ADD Cache by ~erik~ (1.5/1)</desc>
 <url>http://www.geocaching.com/seek/cache_details.aspx?guid=e76dccc7-cf9c-42ca-9a92-0266ac900306</url>
 <urlname>ADD Cache by ~erik~</urlname>
 <sym>Geocache</sym>
 <type>Geocache|Traditional Cache</type>
</wpt>
<wpt lat="33.917700000" lon="-84.163050000"><time>2005-03-12T00:00:00Z</time>
 <name>GCN2P7</name>
 <desc>Sho-Sho by uraca (1.5/2)</desc>
 <url>http://www.geocaching.com/seek/cache_details.aspx?guid=34a0ca5d-5b6f-4898-b22b-fd8af9b435cc</url>
 <urlname>Sho-Sho by uraca</urlname>
 <sym>Geocache</sym>
 <type>Geocache|Traditional Cache</type>
</wpt>
<wpt lat="33.920100000" lon="-84.163983000"><time>2004-08-30T00:00:00Z</time>
 <name>GCKDX3</name>
 <desc>Drive By Legalize by uraca (1/1)</desc>
 <url>http://www.geocaching.com/seek/cache_details.aspx?guid=58f309b6-0b59-4f0c-b6ca-8054b4eb512c</url>
 <urlname>Drive By Legalize by uraca</urlname>
 <sym>Geocache</sym>
 <type>Geocache|Traditional Cache</type>
</wpt>
<wpt lat="34.038000000" lon="-84.304000000"><time>2005-03-03T00:00:00Z</time>
 <name>GCMZMV</name>
 <desc>CrOsSeYeD by joebids (2/1.5)</desc>
 <url>http://www.geocaching.com/seek/cache_details.aspx?guid=28ac00d2-3d9f-428d-80a3-f2b6c0db8eb9</url>
 <urlname>CrOsSeYeD by joebids</urlname>
 <sym>Geocache</sym>
 <type>Geocache|Unknown Cache</type>
</wpt>
<wpt lat="34.038883000" lon="-84.303100000"><time>2005-01-17T00:00:00Z</time>
 <name>GCMHP4</name>
 <desc>Your Kung Fu Is Not Strong by oldschool (2/2)</desc>
 <url>http://www.geocaching.com/seek/cache_details.aspx?guid=08967dd7-e6ac-4370-8769-5f79542955a0</url>
 <urlname>Your Kung Fu Is Not Strong by oldschool</urlname>
 <sym>Geocache</sym>
 <type>Geocache|Traditional Cache</type>
</wpt>
<wpt lat="33.867983000" lon="-84.019750000"><time>2005-07-04T00:00:00Z</time>
 <name>GCPJRT</name>
 <desc>Kohl'd Hard Cache #4 by BUSHBOB (1.5/2.5)</desc>
 <url>http://www.geocaching.com/seek/cache_details.aspx?guid=718a2983-6c04-411a-ac48-c634106bf8c8</url>
 <urlname>Kohl'd Hard Cache #4 by BUSHBOB</urlname>
 <sym>Geocache</sym>
 <type>Geocache|Traditional Cache</type>
</wpt>
<wpt lat="34.564200000" lon="-83.544667000"><time>2005-08-16T00:00:00Z</time>
 <name>GCQ5Q2</name>
 <desc>The Big Cat's Stomping Grounds by EBBJr (2/1)</desc>
 <url>http://www.geocaching.com/seek/cache_details.aspx?guid=55d2b22f-8d90-40a8-b89e-1b45f5e18105</url>
 <urlname>The Big Cat's Stomping Grounds by EBBJr</urlname>
 <sym>Geocache</sym>
 <type>Geocache|Multi-cache</type>
</wpt>
<wpt lat="33.936600000" lon="-84.186850000"><time>2005-05-21T00:00:00Z</time>
 <name>GCP0C3</name>
 <desc>G.D.O.L. by bluprizm (1/1)</desc>
 <url>http://www.geocaching.com/seek/cache_details.aspx?guid=d6b5c94b-c204-4cca-bffa-e3bcd31d0e4c</url>
 <urlname>G.D.O.L. by bluprizm</urlname>
 <sym>Geocache</sym>
 <type>Geocache|Traditional Cache</type>
</wpt>
<wpt lat="34.337733000" lon="-84.375983000"><time>2005-09-05T00:00:00Z</time>
 <name>GC845A</name>
 <desc><![CDATA[Who's on First by Jimmus &amp; SpikesMom (1/1)]]></desc>
 <url>http://www.geocaching.com/seek/cache_details.aspx?guid=a09e1641-19a0-4571-8ec9-b905d6a2f4db</url>
 <urlname><![CDATA[Who's on First by Jimmus &amp; SpikesMom]]></urlname>
 <sym>Geocache</sym>
 <type>Geocache|Traditional Cache</type>
</wpt>
<wpt lat="34.282250000" lon="-84.382400000"><time>2005-10-08T00:00:00Z</time>
 <name>GCQWD3</name>
 <desc>Cali's Cache by jlj (2/2.5)</desc>
 <url>http://www.geocaching.com/seek/cache_details.aspx?guid=953ffc1f-3fd0-4978-9801-1b38615b71b2</url>
 <urlname>Cali's Cache by jlj</urlname>
 <sym>Geocache</sym>
 <type>Geocache|Traditional Cache</type>
</wpt>
<wpt lat="33.926400000" lon="-84.166017000"><time>2004-08-23T00:00:00Z</time>
 <name>GCKBW3</name>
 <desc>View and Kudzu by uraca (1/1)</desc>
 <url>http://www.geocaching.com/seek/cache_details.aspx?guid=0c00deb4-6e9b-4e31-b6a8-ff33194ca949</url>
 <urlname>View and Kudzu by uraca</urlname>
 <sym>Geocache</sym>
 <type>Geocache|Traditional Cache</type>
</wpt>
<wpt lat="33.858867000" lon="-83.953733000"><time>2005-06-30T00:00:00Z</time>
 <name>GCPGZP</name>
 <desc>Recycler # 7...Publix Enemy! by Dougs94 and Linda (2/2)</desc>
 <url>http://www.geocaching.com/seek/cache_details.aspx?guid=5b0a9cbd-48ea-4bec-9995-534306603878</url>
 <urlname>Recycler # 7...Publix Enemy! by Dougs94 and Linda</urlname>
 <sym>Geocache</sym>
 <type>Geocache|Traditional Cache</type>
</wpt>
<wpt lat="34.336850000" lon="-84.374383000"><time>2005-09-05T00:00:00Z</time>
 <name>GC845C</name>
 <desc><![CDATA[What's on Second by Jimmus &amp; SpikesMom (1/1)]]></desc>
 <url>http://www.geocaching.com/seek/cache_details.aspx?guid=2330bb68-78a3-4429-b9ed-89965f75253b</url>
 <urlname><![CDATA[What's on Second by Jimmus &amp; SpikesMom]]></urlname>
 <sym>Geocache</sym>
 <type>Geocache|Traditional Cache</type>
</wpt>
<wpt lat="34.037833000" lon="-84.297983000"><time>2003-11-02T00:00:00Z</time>
 <name>GCH5RD</name>
 <desc>Swampy Waffle by oldschool (1.5/1)</desc>
 <url>http://www.geocaching.com/seek/cache_details.aspx?guid=0f68eb4b-6992-4910-aa33-15613d8fae4a</url>
 <urlname>Swampy Waffle by oldschool</urlname>
 <sym>Geocache</sym>
 <type>Geocache|Traditional Cache</type>
</wpt>
<wpt lat="34.039583000" lon="-84.298667000"><time>2005-03-13T00:00:00Z</time>
 <name>GCN333</name>
 <desc>OVERlooked Pond II by joebids (2/1)</desc>
 <url>http://www.geocaching.com/seek/cache_details.aspx?guid=d0ac6de6-8ca7-4f9d-93e5-7ebfdb46a6f2</url>
 <urlname>OVERlooked Pond II by joebids</urlname>
 <sym>Geocache</sym>
 <type>Geocache|Traditional Cache</type>
</wpt>
<wpt lat="34.040750000" lon="-84.297317000"><time>2003-03-21T00:00:00Z</time>
 <name>GCE8F2</name>
 <desc>Lunch Break! #4 - OverUnder by A Nord (1/1)</desc>
 <url>http://www.geocaching.com/seek/cache_details.aspx?guid=393db556-aa40-4d1d-952c-3847b196ce27</url>
 <urlname>Lunch Break! #4 - OverUnder by A Nord</urlname>
 <sym>Geocache</sym>
 <type>Geocache|Traditional Cache</type>
</wpt>
<wpt lat="34.096967000" lon="-84.333517000"><time>2003-01-12T00:00:00Z</time>
 <name>GCC34E</name>
 <desc>Alpharetta Poker Micro Cache #4 by bbotz, loLA and Mictlan (1/1)</desc>
 <url>http://www.geocaching.com/seek/cache_details.aspx?guid=845bccb8-cebf-4806-b89d-2d01ebe39ce7</url>
 <urlname>Alpharetta Poker Micro Cache #4 by bbotz, loLA and Mictlan</urlname>
 <sym>Geocache</sym>
 <type>Geocache|Traditional Cache</type>
</wpt>
<wpt lat="34.644617000" lon="-83.714567000"><time>2003-11-22T00:00:00Z</time>
 <name>GCH8P0</name>
 <desc>2 On The Mountain by phat.bak (2/3.5)</desc>
 <url>http://www.geocaching.com/seek/cache_details.aspx?guid=9b9e503d-1981-40ec-8c8d-5d222c1c35e3</url>
 <urlname>2 On The Mountain by phat.bak</urlname>
 <sym>Geocache</sym>
 <type>Geocache|Traditional Cache</type>
</wpt>
<wpt lat="33.873650000" lon="-84.015383000"><time>2004-05-01T00:00:00Z</time>
 <name>GCJBB0</name>
 <desc>Acquire Your Target by RoboJr (1/1)</desc>
 <url>http://www.geocaching.com/seek/cache_details.aspx?guid=778051a7-d2e8-4f95-9e07-147ee751738f</url>
 <urlname>Acquire Your Target by RoboJr</urlname>
 <sym>Geocache</sym>
 <type>Geocache|Traditional Cache</type>
</wpt>
<wpt lat="34.043150000" lon="-84.296483000"><time>2003-04-13T00:00:00Z</time>
 <name>GCF83B</name>
 <desc><![CDATA[BYOP* by ~erik &amp; Catherine~ (2.5/1.5)]]></desc>
 <url>http://www.geocaching.com/seek/cache_details.aspx?guid=3189bd7c-f802-4b8f-941a-3f3521cf739a</url>
 <urlname><![CDATA[BYOP* by ~erik &amp; Catherine~]]></urlname>
 <sym>Geocache</sym>
 <type>Geocache|Traditional Cache</type>
</wpt>
<wpt lat="34.648983000" lon="-83.734967000"><time>2002-03-10T00:00:00Z</time>
 <name>GC4156</name>
 <desc>Nacoochee's Revenge (Yonah Mountain) by CacheousClay/Tupac Cacheur - (adopted by phat.bak) (3/3.5)</desc>
 <url>http://www.geocaching.com/seek/cache_details.aspx?guid=7720c68a-2339-4450-9cfb-4d28198f6d1e</url>
 <urlname>Nacoochee's Revenge (Yonah Mountain) by CacheousClay/Tupac Cacheur - (adopted by phat.bak)</urlname>
 <sym>Geocache</sym>
 <type>Geocache|Multi-cache</type>
</wpt>
<wpt lat="33.888617000" lon="-84.062883000"><time>2005-07-05T00:00:00Z</time>
 <name>GCPK56</name>
 <desc>Janitrol by iamstarfox (1.5/1)</desc>
 <url>http://www.geocaching.com/seek/cache_details.aspx?guid=ac754071-4cbf-494e-8e81-56fb67b98af5</url>
 <urlname>Janitrol by iamstarfox</urlname>
 <sym>Geocache</sym>
 <type>Geocache|Traditional Cache</type>
</wpt>
<wpt lat="34.049617000" lon="-84.298283000"><time>2005-05-29T00:00:00Z</time>
 <name>GCP3R4</name>
 <desc>The Happiest Rodent Cache Ever by Happy Hiking Hogans (1.5/1.5)</desc>
 <url>http://www.geocaching.com/seek/cache_details.aspx?guid=25048d2b-5155-4f33-af0c-3050c03c189e</url>
 <urlname>The Happiest Rodent Cache Ever by Happy Hiking Hogans</urlname>
 <sym>Geocache</sym>
 <type>Geocache|Traditional Cache</type>
</wpt>
<wpt lat="34.598683000" lon="-84.158083000"><time>2002-06-07T00:00:00Z</time>
 <name>GC616C</name>
 <desc>Lance Creek by Johnnie of the Lacy Family (2/3.5)</desc>
 <url>http://www.geocaching.com/seek/cache_details.aspx?guid=1e734eda-27ec-481e-995a-ef48ade3b551</url>
 <urlname>Lance Creek by Johnnie of the Lacy Family</urlname>
 <sym>Geocache</sym>
 <type>Geocache|Traditional Cache</type>
</wpt>
<wpt lat="33.935700000" lon="-84.165200000"><time>2005-06-27T00:00:00Z</time>
 <name>GCPFKN</name>
 <desc>Hey, that Beaver Ruined my cache! by cybershooter (1.5/2.5)</desc>
 <url>http://www.geocaching.com/seek/cache_details.aspx?guid=49300c79-5a1a-497b-ba5b-cbd18df84257</url>
 <urlname>Hey, that Beaver Ruined my cache! by cybershooter</urlname>
 <sym>Geocache</sym>
 <type>Geocache|Traditional Cache</type>
</wpt>
<wpt lat="33.901917000" lon="-84.093450000"><time>2002-05-14T00:00:00Z</time>
 <name>GC57FF</name>
 <desc>Exit the Reagan, Part 2 by Ramness570 (2.5/1)</desc>
 <url>http://www.geocaching.com/seek/cache_details.aspx?guid=0b3e103a-73aa-4bd4-9b0a-d235e9a25487</url>
 <urlname>Exit the Reagan, Part 2 by Ramness570</urlname>
 <sym>Geocache</sym>
 <type>Geocache|Traditional Cache</type>
</wpt>
<wpt lat="34.017367000" lon="-84.267683000"><time>2002-04-27T00:00:00Z</time>
 <name>GC51D6</name>
 <desc>Newer Cache at Newtown by mtn-man (3/1)</desc>
 <url>http://www.geocaching.com/seek/cache_details.aspx?guid=a7a71012-d55b-4d23-9727-8ac719a76438</url>
 <urlname>Newer Cache at Newtown by mtn-man</urlname>
 <sym>Geocache</sym>
 <type>Geocache|Traditional Cache</type>
</wpt>
<wpt lat="33.879067000" lon="-84.016967000"><time>2002-09-16T00:00:00Z</time>
 <name>GC8F52</name>
 <desc>Are you In the Loop? by Ramness570 (1.5/1)</desc>
 <url>http://www.geocaching.com/seek/cache_details.aspx?guid=693dca37-e9f2-44c5-a24d-2fb94b50b342</url>
 <urlname>Are you In the Loop? by Ramness570</urlname>
 <sym>Geocache</sym>
 <type>Geocache|Traditional Cache</type>
</wpt>
<wpt lat="33.880650000" lon="-84.021833000"><time>2003-04-17T00:00:00Z</time>
 <name>GCFB31</name>
 <desc>The Forgotten Neighborhood by Ramness570 (2/1)</desc>
 <url>http://www.geocaching.com/seek/cache_details.aspx?guid=db3fe21e-c3d6-4f77-b007-bc9baa6b443b</url>
 <urlname>The Forgotten Neighborhood by Ramness570</urlname>
 <sym>Geocache</sym>
 <type>Geocache|Multi-cache</type>
</wpt>
<wpt lat="34.072500000" lon="-84.310833000"><time>2004-09-25T00:00:00Z</time>
 <name>GCKMPF</name>
 <desc>Katelyn's Cache by Hawkeye_Family (1.5/1.5)</desc>
 <url>http://www.geocaching.com/seek/cache_details.aspx?guid=3c963d45-b141-4091-bbae-abeeda3a86c6</url>
 <urlname>Katelyn's Cache by Hawkeye_Family</urlname>
 <sym>Geocache</sym>
 <type>Geocache|Multi-cache</type>
</wpt>
<wpt lat="34.049467000" lon="-84.293933000"><time>2005-01-19T00:00:00Z</time>
 <name>GCMN2F</name>
 <desc><![CDATA[Husbands Escape #1 by Milligan &amp; GT Sailor (2.5/1.5)]]></desc>
 <url>http://www.geocaching.com/seek/cache_details.aspx?guid=79a9cd91-b505-402b-aef6-8da03c073583</url>
 <urlname><![CDATA[Husbands Escape #1 by Milligan &amp; GT Sailor]]></urlname>
 <sym>Geocache</sym>
 <type>Geocache|Unknown Cache</type>
</wpt>
<wpt lat="33.932433000" lon="-84.154717000"><time>2003-04-21T00:00:00Z</time>
 <name>GCFF26</name>
 <desc>Vulcan's Missing Key Cache by Kimchi (1.5/1)</desc>
 <url>http://www.geocaching.com/seek/cache_details.aspx?guid=eaba02b5-c13b-48f8-83eb-98de8850d218</url>
 <urlname>Vulcan's Missing Key Cache by Kimchi</urlname>
 <sym>Geocache</sym>
 <type>Geocache|Traditional Cache</type>
</wpt>
<wpt lat="33.871750000" lon="-83.971800000"><time>2000-06-03T00:00:00Z</time>
 <name>GC1D</name>
 <desc>Beaver Cache by Jim Gooch (1/1)</desc>
 <url>http://www.geocaching.com/seek/cache_details.aspx?guid=07c58bb0-e54f-4f74-bed7-8c45e41cc7ea</url>
 <urlname>Beaver Cache by Jim Gooch</urlname>
 <sym>Geocache</sym>
 <type>Geocache|Traditional Cache</type>
</wpt>
<wpt lat="33.903883000" lon="-84.091900000"><time>2003-10-25T00:00:00Z</time>
 <name>GCH48Y</name>
 <desc>Litter Box by yjjohnston (2/1.5)</desc>
 <url>http://www.geocaching.com/seek/cache_details.aspx?guid=a5b57a36-675b-48eb-9c7c-d6f64ac62633</url>
 <urlname>Litter Box by yjjohnston</urlname>
 <sym>Geocache</sym>
 <type>Geocache|Traditional Cache</type>
</wpt>
<wpt lat="34.070133000" lon="-84.306967000"><time>2003-01-12T00:00:00Z</time>
 <name>GCC34B</name>
 <desc>Alpharetta Poker Micro Cache #1 by bbotz, loLA and Mictlan (1/1)</desc>
 <url>http://www.geocaching.com/seek/cache_details.aspx?guid=c251b614-f311-407a-a4e7-cff9de7aae26</url>
 <urlname>Alpharetta Poker Micro Cache #1 by bbotz, loLA and Mictlan</urlname>
 <sym>Geocache</sym>
 <type>Geocache|Traditional Cache</type>
</wpt>
<wpt lat="34.070133000" lon="-84.306967000"><time>2003-01-12T00:00:00Z</time>
 <name>GCC351</name>
 <desc>Alpharetta Poker Micro Cache #6 BONUS by bbotz, loLA and Mictlan (4/1)</desc>
 <url>http://www.geocaching.com/seek/cache_details.aspx?guid=271f4d6e-6601-4342-8b45-9662df5e03c9</url>
 <urlname>Alpharetta Poker Micro Cache #6 BONUS by bbotz, loLA and Mictlan</urlname>
 <sym>Geocache</sym>
 <type>Geocache|Unknown Cache</type>
</wpt>
<wpt lat="33.935517000" lon="-84.156900000"><time>2004-08-04T00:00:00Z</time>
 <name>GCK64N</name>
 <desc>This One's For Sam by Strapped-4-Cache (1/1)</desc>
 <url>http://www.geocaching.com/seek/cache_details.aspx?guid=c218f32c-2665-4abf-a266-f0394770d828</url>
 <urlname>This One's For Sam by Strapped-4-Cache</urlname>
 <sym>Geocache</sym>
 <type>Geocache|Traditional Cache</type>
</wpt>
<wpt lat="33.893350000" lon="-84.057717000"><time>2004-07-16T00:00:00Z</time>
 <name>GCK0E0</name>
 <desc>Barking Lot by Kimchi (1/1.5)</desc>
 <url>http://www.geocaching.com/seek/cache_details.aspx?guid=c01d7f68-a19e-47a6-bc05-b48a9fd00df1</url>
 <urlname>Barking Lot by Kimchi</urlname>
 <sym>Geocache</sym>
 <type>Geocache|Traditional Cache</type>
</wpt>
<wpt lat="33.903333000" lon="-84.085750000"><time>2005-03-13T00:00:00Z</time>
 <name>GCN36Y</name>
 <desc>Hocus-Pocus Bogus by geomuse (3/3)</desc>
 <url>http://www.geocaching.com/seek/cache_details.aspx?guid=f14955db-7b6c-407d-a89f-4880a005bb82</url>
 <urlname>Hocus-Pocus Bogus by geomuse</urlname>
 <sym>Geocache</sym>
 <type>Geocache|Unknown Cache</type>
</wpt>
<wpt lat="34.045500000" lon="-84.285983000"><time>2003-08-27T00:00:00Z</time>
 <name>GCGR8K</name>
 <desc>Lunch Break! #6 - Bulls-Eye by A Nord (1/1)</desc>
 <url>http://www.geocaching.com/seek/cache_details.aspx?guid=7a15d6d0-855f-4f91-bc3f-cb001857ac0c</url>
 <urlname>Lunch Break! #6 - Bulls-Eye by A Nord</urlname>
 <sym>Geocache</sym>
 <type>Geocache|Traditional Cache</type>
</wpt>
<wpt lat="34.053183000" lon="-84.291950000"><time>2005-01-17T00:00:00Z</time>
 <name>GCMHP2</name>
 <desc>My Blue Heaven by oldschool (3/3)</desc>
 <url>http://www.geocaching.com/seek/cache_details.aspx?guid=8fcd1c28-d6c7-4d0e-b43f-a2e07fbd7525</url>
 <urlname>My Blue Heaven by oldschool</urlname>
 <sym>Geocache</sym>
 <type>Geocache|Traditional Cache</type>
</wpt>
<wpt lat="33.904800000" lon="-84.087133000"><time>2005-10-09T00:00:00Z</time>
 <name>GCQWXQ</name>
 <desc><![CDATA[THE BETHESDA TRIANGLE by RG&amp;MD (3.5/3)]]></desc>
 <url>http://www.geocaching.com/seek/cache_details.aspx?guid=9b8933b8-cf86-49f6-a1ee-5937d421737e</url>
 <urlname><![CDATA[THE BETHESDA TRIANGLE by RG&amp;MD]]></urlname>
 <sym>Geocache</sym>
 <type>Geocache|Unknown Cache</type>
</wpt>
<wpt lat="33.896433000" lon="-84.063200000"><time>2004-03-07T00:00:00Z</time>
 <name>GCHVX8</name>
 <desc>Somewhere Over the Litter Box by yjjohnston (4/2)</desc>
 <url>http://www.geocaching.com/seek/cache_details.aspx?guid=006dbb68-bc3b-456b-9f51-a3c5345f8925</url>
 <urlname>Somewhere Over the Litter Box by yjjohnston</urlname>
 <sym>Geocache</sym>
 <type>Geocache|Unknown Cache</type>
</wpt>
<wpt lat="33.981383000" lon="-84.218950000"><time>2005-04-13T00:00:00Z</time>
 <name>GCNFE8</name>
 <desc><![CDATA[Too Many Choices by Camper17 &amp; Seto The Sage (1/1)]]></desc>
 <url>http://www.geocaching.com/seek/cache_details.aspx?guid=f70c5cce-2b30-4bd5-974b-4f43c90c60ad</url>
 <urlname><![CDATA[Too Many Choices by Camper17 &amp; Seto The Sage]]></urlname>
 <sym>Geocache</sym>
 <type>Geocache|Traditional Cache</type>
</wpt>
<wpt lat="33.883100000" lon="-84.007267000"><time>2004-12-07T00:00:00Z</time>
 <name>GCM7RD</name>
 <desc>Just Hangin' Out by Dougs94 and Linda (2/1.5)</desc>
 <url>http://www.geocaching.com/seek/cache_details.aspx?guid=b68fd235-b0d8-4e22-a78c-9d8a8d42936b</url>
 <urlname>Just Hangin' Out by Dougs94 and Linda</urlname>
 <sym>Geocache</sym>
 <type>Geocache|Traditional Cache</type>
</wpt>
<wpt lat="33.895967000" lon="-84.055650000"><time>2005-03-13T00:00:00Z</time>
 <name>GCN3C6</name>
 <desc>Reagan Recalls by Ufemism (2/2)</desc>
 <url>http://www.geocaching.com/seek/cache_details.aspx?guid=fc8907c0-cb43-4fde-af97-53dcfa6ce997</url>
 <urlname>Reagan Recalls by Ufemism</urlname>
 <sym>Geocache</sym>
 <type>Geocache|Multi-cache</type>
</wpt>
<wpt lat="33.935133000" lon="-84.145300000"><time>2004-09-06T00:00:00Z</time>
 <name>GCKFRB</name>
 <desc>Sleepy Hollow by Bearbag Bubba (1.5/1.5)</desc>
 <url>http://www.geocaching.com/seek/cache_details.aspx?guid=d99a2731-abbd-43cd-b3e0-dc8db9b72ff8</url>
 <urlname>Sleepy Hollow by Bearbag Bubba</urlname>
 <sym>Geocache</sym>
 <type>Geocache|Traditional Cache</type>
</wpt>
<wpt lat="33.982083000" lon="-84.215400000"><time>2005-05-21T00:00:00Z</time>
 <name>GCP0C7</name>
 <desc>~ Go Fish ~ by bluprizm (1/1)</desc>
 <url>http://www.geocaching.com/seek/cache_details.aspx?guid=e15b509b-f386-487c-ae3d-5cbd34709836</url>
 <urlname>~ Go Fish ~ by bluprizm</urlname>
 <sym>Geocache</sym>
 <type>Geocache|Traditional Cache</type>
</wpt>
<wpt lat="34.000300000" lon="-84.235617000"><time>2005-06-23T00:00:00Z</time>
 <name>GCPDW4</name>
 <desc>River of Painted Rocks by bluprizm (2.5/1.5)</desc>
 <url>http://www.geocaching.com/seek/cache_details.aspx?guid=32099980-a909-4f3f-a5e3-5fdbf05b655b</url>
 <urlname>River of Painted Rocks by bluprizm</urlname>
 <sym>Geocache</sym>
 <type>Geocache|Multi-cache</type>
</wpt>
<wpt lat="33.965083000" lon="-84.188283000"><time>2005-02-17T00:00:00Z</time>
 <name>GCMTX5</name>
 <desc>Where's The Log? by Strapped-4-Cache (3.5/3)</desc>
 <url>http://www.geocaching.com/seek/cache_details.aspx?guid=676f2490-876f-48fd-9b11-2db27cae0ca2</url>
 <urlname>Where's The Log? by Strapped-4-Cache</urlname>
 <sym>Geocache</sym>
 <type>Geocache|Unknown Cache</type>
</wpt>
<wpt lat="34.071200000" lon="-84.293933000"><time>2004-10-25T00:00:00Z</time>
 <name>GCKXVG</name>
 <desc>Beyond The Stars! by GRRRR8! and Son! (adopted by Mertat) (1.5/1)</desc>
 <url>http://www.geocaching.com/seek/cache_details.aspx?guid=7cfa3eaa-f6b9-42fd-b486-a2791e98c6eb</url>
 <urlname>Beyond The Stars! by GRRRR8! and Son! (adopted by Mertat)</urlname>
 <sym>Geocache</sym>
 <type>Geocache|Multi-cache</type>
</wpt>
<wpt lat="34.000000000" lon="-84.230283000"><time>2005-04-20T00:00:00Z</time>
 <name>GCNJKB</name>
 <desc><![CDATA[Oh, Deer by Camper17 &amp; Seto The Sage (3/3)]]></desc>
 <url>http://www.geocaching.com/seek/cache_details.aspx?guid=e948425f-ef38-4e91-a4ae-034e1ec0109c</url>
 <urlname><![CDATA[Oh, Deer by Camper17 &amp; Seto The Sage]]></urlname>
 <sym>Geocache</sym>
 <type>Geocache|Multi-cache</type>
</wpt>
<wpt lat="34.043683000" lon="-84.271200000"><time>2005-10-01T00:00:00Z</time>
 <name>GCQRX6</name>
 <desc>Herd About This Spot by KG4TTT (1.5/1)</desc>
 <url>http://www.geocaching.com/seek/cache_details.aspx?guid=22b72218-a4bd-45ab-acf2-b44acd64bf03</url>
 <urlname>Herd About This Spot by KG4TTT</urlname>
 <sym>Geocache</sym>
 <type>Geocache|Traditional Cache</type>
</wpt>
<wpt lat="33.967317000" lon="-84.186133000"><time>2005-06-03T00:00:00Z</time>
 <name>GCP5P3</name>
 <desc>Pseudo-Ku by Strapped-4-Cache (2/2.5)</desc>
 <url>http://www.geocaching.com/seek/cache_details.aspx?guid=4f2a2b71-47e6-4c03-a95b-0f1295d9ad40</url>
 <urlname>Pseudo-Ku by Strapped-4-Cache</urlname>
 <sym>Geocache</sym>
 <type>Geocache|Unknown Cache</type>
</wpt>
<wpt lat="34.511683000" lon="-83.526567000"><time>2005-09-17T00:00:00Z</time>
 <name>GCQK6R</name>
 <desc>try to pick this ! by dep2061 (1/1)</desc>
 <url>http://www.geocaching.com/seek/cache_details.aspx?guid=7749b591-b8d2-4796-bca5-cd2c0373712c</url>
 <urlname>try to pick this ! by dep2061</urlname>
 <sym>Geocache</sym>
 <type>Geocache|Traditional Cache</type>
</wpt>
<wpt lat="33.969017000" lon="-84.187583000"><time>2004-09-06T00:00:00Z</time>
 <name>GCKG40</name>
 <desc>Picnic at Pinckneyville by Brisca One (1.5/1.5)</desc>
 <url>http://www.geocaching.com/seek/cache_details.aspx?guid=b3dedd9a-c833-4723-ae62-8cfe742119af</url>
 <urlname>Picnic at Pinckneyville by Brisca One</urlname>
 <sym>Geocache</sym>
 <type>Geocache|Multi-cache</type>
</wpt>
<wpt lat="33.969883000" lon="-84.185650000"><time>2005-10-02T00:00:00Z</time>
 <name>GCQTHG</name>
 <desc>Pick Pinckneyville! by snappyh (2/2)</desc>
 <url>http://www.geocaching.com/seek/cache_details.aspx?guid=95586804-60e6-4700-a99b-10325f809320</url>
 <urlname>Pick Pinckneyville! by snappyh</urlname>
 <sym>Geocache</sym>
 <type>Geocache|Traditional Cache</type>
</wpt>
<wpt lat="33.881000000" lon="-83.918200000"><time>2004-06-29T00:00:00Z</time>
 <name>GCJVH8</name>
 <desc>Recycler #2 by Dougs94 and Linda (1.5/1.5)</desc>
 <url>http://www.geocaching.com/seek/cache_details.aspx?guid=7484d458-fde4-43ac-8af5-b89b4ce0c605</url>
 <urlname>Recycler #2 by Dougs94 and Linda</urlname>
 <sym>Geocache</sym>
 <type>Geocache|Traditional Cache</type>
</wpt>
<wpt lat="33.945533000" lon="-84.145433000"><time>2004-09-01T00:00:00Z</time>
 <name>GCKEEE</name>
 <desc>85 Overlook by Baptist Deacon (1/1)</desc>
 <url>http://www.geocaching.com/seek/cache_details.aspx?guid=28773433-6d9b-4b0d-8c06-4b7564a139fc</url>
 <urlname>85 Overlook by Baptist Deacon</urlname>
 <sym>Geocache</sym>
 <type>Geocache|Traditional Cache</type>
</wpt>
<wpt lat="33.943433000" lon="-84.135883000"><time>2004-02-29T00:00:00Z</time>
 <name>GCHTZX</name>
 <desc><![CDATA[Carrie's Toy Box by Carrie &amp; Andrew (1.5/1.5)]]></desc>
 <url>http://www.geocaching.com/seek/cache_details.aspx?guid=24712cc5-7d63-4391-ab0e-ff972045162a</url>
 <urlname><![CDATA[Carrie's Toy Box by Carrie &amp; Andrew]]></urlname>
 <sym>Geocache</sym>
 <type>Geocache|Traditional Cache</type>
</wpt>
<wpt lat="33.888550000" lon="-83.963200000"><time>2004-12-03T00:00:00Z</time>
 <name>GCM6XV</name>
 <desc>30017 by Mushtang (1.5/1.5)</desc>
 <url>http://www.geocaching.com/seek/cache_details.aspx?guid=da6178ac-8842-4faf-9ee1-18673e5d43f9</url>
 <urlname>30017 by Mushtang</urlname>
 <sym>Geocache</sym>
 <type>Geocache|Traditional Cache</type>
</wpt>
<wpt lat="34.317700000" lon="-84.343267000"><time>2005-09-05T00:00:00Z</time>
 <name>GC845F</name>
 <desc><![CDATA[I Don't Know's on Third by Jimmus &amp; SpikesMom (1/1)]]></desc>
 <url>http://www.geocaching.com/seek/cache_details.aspx?guid=772552ce-18b5-4610-b509-800576ca0b83</url>
 <urlname><![CDATA[I Don't Know's on Third by Jimmus &amp; SpikesMom]]></urlname>
 <sym>Geocache</sym>
 <type>Geocache|Virtual Cache</type>
</wpt>
<wpt lat="33.950817000" lon="-84.146417000"><time>2005-10-02T00:00:00Z</time>
 <name>GCQTB2</name>
 <desc>Super retail by sandshot (2/1)</desc>
 <url>http://www.geocaching.com/seek/cache_details.aspx?guid=3a8eeb9e-4641-4b9a-8371-a77c7672ffba</url>
 <urlname>Super retail by sandshot</urlname>
 <sym>Geocache</sym>
 <type>Geocache|Traditional Cache</type>
</wpt>
<wpt lat="33.886017000" lon="-83.926700000"><time>2005-03-11T00:00:00Z</time>
 <name>GCN2CY</name>
 <desc>Recycler #5... Cammo! by Dougs94 and Linda (2/1.5)</desc>
 <url>http://www.geocaching.com/seek/cache_details.aspx?guid=f7dc1cd1-29ef-4ecc-ab4c-c6dc4b66c649</url>
 <urlname>Recycler #5... Cammo! by Dougs94 and Linda</urlname>
 <sym>Geocache</sym>
 <type>Geocache|Traditional Cache</type>
</wpt>
<wpt lat="34.018000000" lon="-84.232383000"><time>2005-05-13T00:00:00Z</time>
 <name>GCNX6K</name>
 <desc>The Happiest Dog Cache Ever by Happy Hiking Hogans (1.5/2)</desc>
 <url>http://www.geocaching.com/seek/cache_details.aspx?guid=5ecbc43b-7cc1-41b3-8452-7114734d643a</url>
 <urlname>The Happiest Dog Cache Ever by Happy Hiking Hogans</urlname>
 <sym>Geocache</sym>
 <type>Geocache|Traditional Cache</type>
</wpt>
<wpt lat="33.994350000" lon="-84.203433000"><time>2002-12-31T00:00:00Z</time>
 <name>GCBD09</name>
 <desc>OFF THE BEATEN PATH by MACFINDER (2/2)</desc>
 <url>http://www.geocaching.com/seek/cache_details.aspx?guid=f1144626-a480-4199-8297-3dff6b1f8c91</url>
 <urlname>OFF THE BEATEN PATH by MACFINDER</urlname>
 <sym>Geocache</sym>
 <type>Geocache|Traditional Cache</type>
</wpt>
<wpt lat="34.020850000" lon="-84.232233000"><time>2002-07-22T00:00:00Z</time>
 <name>GC74D9</name>
 <desc>Autrey Mill (Aida's Acres) by MCurrie (1.5/1)</desc>
 <url>http://www.geocaching.com/seek/cache_details.aspx?guid=a2e72f9a-b521-4659-ad2f-bdae0383279a</url>
 <urlname>Autrey Mill (Aida's Acres) by MCurrie</urlname>
 <sym>Geocache</sym>
 <type>Geocache|Multi-cache</type>
</wpt>
<wpt lat="33.922683000" lon="-84.072817000"><time>2004-12-04T00:00:00Z</time>
 <name>GCM71H</name>
 <desc>30044 by Mushtang (1/1)</desc>
 <url>http://www.geocaching.com/seek/cache_details.aspx?guid=09192976-c6f0-4c87-84d5-2704b7617f79</url>
 <urlname>30044 by Mushtang</urlname>
 <sym>Geocache</sym>
 <type>Geocache|Traditional Cache</type>
</wpt>
<wpt lat="33.894917000" lon="-83.959467000"><time>2004-10-07T00:00:00Z</time>
 <name>GCKQYR</name>
 <desc>Grayson Micro by Dougs94 and Linda (1/1)</desc>
 <url>http://www.geocaching.com/seek/cache_details.aspx?guid=5286f6c7-77d3-4673-a0e6-84d14965e60a</url>
 <urlname>Grayson Micro by Dougs94 and Linda</urlname>
 <sym>Geocache</sym>
 <type>Geocache|Traditional Cache</type>
</wpt>
<wpt lat="34.063883000" lon="-84.266983000"><time>2004-02-20T00:00:00Z</time>
 <name>GCHQ7V</name>
 <desc>Nooner #1:  Beyond Infinity by Wudie2000 and 2 hares and a couple of tortoises (2/1)</desc>
 <url>http://www.geocaching.com/seek/cache_details.aspx?guid=812122d9-1b92-4c58-8d79-d2e76fa5d788</url>
 <urlname>Nooner #1:  Beyond Infinity by Wudie2000 and 2 hares and a couple of tortoises</urlname>
 <sym>Geocache</sym>
 <type>Geocache|Traditional Cache</type>
</wpt>
<wpt lat="33.897233000" lon="-83.962700000"><time>2005-06-25T00:00:00Z</time>
 <name>GCPEJZ</name>
 <desc>Publix Enemy: Charles Foster Kane by mrmnjewel (1/1)</desc>
 <url>http://www.geocaching.com/seek/cache_details.aspx?guid=4cc0e04b-5255-4379-b974-7979cef3ccc7</url>
 <urlname>Publix Enemy: Charles Foster Kane by mrmnjewel</urlname>
 <sym>Geocache</sym>
 <type>Geocache|Traditional Cache</type>
</wpt>
<wpt lat="33.949167000" lon="-84.125950000"><time>2004-03-25T00:00:00Z</time>
 <name>GCJ0EM</name>
 <desc>This Cache Is A Breeze by kennethpruett (2/1)</desc>
 <url>http://www.geocaching.com/seek/cache_details.aspx?guid=e58ed80c-e3db-4b46-bd8c-b8d4b6c1d8d3</url>
 <urlname>This Cache Is A Breeze by kennethpruett</urlname>
 <sym>Geocache</sym>
 <type>Geocache|Traditional Cache</type>
</wpt>
<wpt lat="34.026250000" lon="-84.230083000"><time>2005-10-02T00:00:00Z</time>
 <name>GCQTAZ</name>
 <desc>The Happiest Birthday Cache Ever by Happy Hiking Hogans (1.5/2)</desc>
 <url>http://www.geocaching.com/seek/cache_details.aspx?guid=c42a1e33-c957-4643-a480-0f8b1cc843d1</url>
 <urlname>The Happiest Birthday Cache Ever by Happy Hiking Hogans</urlname>
 <sym>Geocache</sym>
 <type>Geocache|Traditional Cache</type>
</wpt>
<wpt lat="34.057450000" lon="-84.258083000"><time>2003-01-21T00:00:00Z</time>
 <name>GCC845</name>
 <desc><![CDATA[Hnde Hoch by JackBQuick &amp; Family (3/1)]]></desc>
 <url>http://www.geocaching.com/seek/cache_details.aspx?guid=8b7bff19-5179-45be-9c02-1c9be9271018</url>
 <urlname><![CDATA[Hnde Hoch by JackBQuick &amp; Family]]></urlname>
 <sym>Geocache</sym>
 <type>Geocache|Unknown Cache</type>
</wpt>
<wpt lat="33.961483000" lon="-84.142800000"><time>2005-10-16T00:00:00Z</time>
 <name>GCR0BY</name>
 <desc>Crow Jay by sandshot (1/1)</desc>
 <url>http://www.geocaching.com/seek/cache_details.aspx?guid=11e40eab-3fd0-4fa8-be3d-cf27ea3acf21</url>
 <urlname>Crow Jay by sandshot</urlname>
 <sym>Geocache</sym>
 <type>Geocache|Traditional Cache</type>
</wpt>
<wpt lat="33.963833000" lon="-84.142283000"><time>2005-09-30T00:00:00Z</time>
 <name>GCQR7H</name>
 <desc>Maxpost by snappyh (1/1)</desc>
 <url>http://www.geocaching.com/seek/cache_details.aspx?guid=e1a2ca37-bf51-42fc-9cf6-5bc163ab80c8</url>
 <urlname>Maxpost by snappyh</urlname>
 <sym>Geocache</sym>
 <type>Geocache|Traditional Cache</type>
</wpt>
<wpt lat="33.961033000" lon="-84.137050000"><time>2005-05-06T00:00:00Z</time>
 <name>GCNT88</name>
 <desc>Assignment: Ninja Cacher by clarioncall (1/1)</desc>
 <url>http://www.geocaching.com/seek/cache_details.aspx?guid=5644153e-5952-41d0-85f0-cdab57396c9e</url>
 <urlname>Assignment: Ninja Cacher by clarioncall</urlname>
 <sym>Geocache</sym>
 <type>Geocache|Traditional Cache</type>
</wpt>
<wpt lat="33.954317000" lon="-84.124600000"><time>2004-07-02T00:00:00Z</time>
 <name>GCJWB7</name>
 <desc>Free Parking by Jonshai (1/1)</desc>
 <url>http://www.geocaching.com/seek/cache_details.aspx?guid=1e39458f-34c3-4de5-9ce9-fe130ab5bc93</url>
 <urlname>Free Parking by Jonshai</urlname>
 <sym>Geocache</sym>
 <type>Geocache|Traditional Cache</type>
</wpt>
<wpt lat="34.062600000" lon="-84.257617000"><time>2001-12-30T00:00:00Z</time>
 <name>GC2F04</name>
 <desc><![CDATA[Ben's Big Creek Bonanza by Mictlan &amp; bbotzong (1/1)]]></desc>
 <url>http://www.geocaching.com/seek/cache_details.aspx?guid=b1569953-bfa5-4e15-8b0d-fe353c22cad6</url>
 <urlname><![CDATA[Ben's Big Creek Bonanza by Mictlan &amp; bbotzong]]></urlname>
 <sym>Geocache</sym>
 <type>Geocache|Traditional Cache</type>
</wpt>
<wpt lat="33.955433000" lon="-84.125833000"><time>2004-06-09T00:00:00Z</time>
 <name>GCJNH5</name>
 <desc><![CDATA[Convergence: East by kennethpruett &amp; Trailerman (3.5/2)]]></desc>
 <url>http://www.geocaching.com/seek/cache_details.aspx?guid=33967f03-cacf-44da-a09d-1f33967303ac</url>
 <urlname><![CDATA[Convergence: East by kennethpruett &amp; Trailerman]]></urlname>
 <sym>Geocache</sym>
 <type>Geocache|Multi-cache</type>
</wpt>
<wpt lat="33.956717000" lon="-84.128150000"><time>2003-10-16T00:00:00Z</time>
 <name>GCH2R2</name>
 <desc>Victoria's Secret by Jonshai (3/2.5)</desc>
 <url>http://www.geocaching.com/seek/cache_details.aspx?guid=84ed4541-cadd-410a-93af-8f0f6df6a6ff</url>
 <urlname>Victoria's Secret by Jonshai</urlname>
 <sym>Geocache</sym>
 <type>Geocache|Unknown Cache</type>
</wpt>
<wpt lat="34.090067000" lon="-84.276800000"><time>2005-10-01T00:00:00Z</time>
 <name>GCQRNV</name>
 <desc>$1.50 Combo by sandshot (2/1)</desc>
 <url>http://www.geocaching.com/seek/cache_details.aspx?guid=0cfc02a4-2b64-4e0c-ac52-431cbe9d98f1</url>
 <urlname>$1.50 Combo by sandshot</urlname>
 <sym>Geocache</sym>
 <type>Geocache|Traditional Cache</type>
</wpt>
<wpt lat="33.963733000" lon="-84.138533000"><time>2005-01-14T00:00:00Z</time>
 <name>GCMGB1</name>
 <desc>ALT Code by Acuttie (1.5/1)</desc>
 <url>http://www.geocaching.com/seek/cache_details.aspx?guid=a437d33a-d87e-42d9-aa51-11325de64079</url>
 <urlname>ALT Code by Acuttie</urlname>
 <sym>Geocache</sym>
 <type>Geocache|Unknown Cache</type>
</wpt>
<wpt lat="33.956133000" lon="-84.124500000"><time>2004-08-24T00:00:00Z</time>
 <name>GCKC99</name>
 <desc>Pirates of the Caribbean Lost Treasure by kennethpruett (3/3)</desc>
 <url>http://www.geocaching.com/seek/cache_details.aspx?guid=29fe81ed-11c4-4a7e-925b-f714faa1603d</url>
 <urlname>Pirates of the Caribbean Lost Treasure by kennethpruett</urlname>
 <sym>Geocache</sym>
 <type>Geocache|Multi-cache</type>
</wpt>
<wpt lat="33.961650000" lon="-84.134600000"><time>2004-05-18T00:00:00Z</time>
 <name>GCJFJE</name>
 <desc>Conspiracy Theory by Strapped-4-Cache (3/3.5)</desc>
 <url>http://www.geocaching.com/seek/cache_details.aspx?guid=f8b6999d-1994-4c00-93c9-3a14610d6857</url>
 <urlname>Conspiracy Theory by Strapped-4-Cache</urlname>
 <sym>Geocache</sym>
 <type>Geocache|Multi-cache</type>
</wpt>
<wpt lat="33.962883000" lon="-84.136183000"><time>2005-10-02T00:00:00Z</time>
 <name>GCQTBA</name>
 <desc>Go East, Young man! by sandshot (2/1)</desc>
 <url>http://www.geocaching.com/seek/cache_details.aspx?guid=0d2f7116-24be-4889-94f8-afaf197672a4</url>
 <urlname>Go East, Young man! by sandshot</urlname>
 <sym>Geocache</sym>
 <type>Geocache|Traditional Cache</type>
</wpt>
<wpt lat="34.047167000" lon="-84.241733000"><time>2005-09-25T00:00:00Z</time>
 <name>GCQPHM</name>
 <desc>Another  :-)  Dog Cache by Happy Hiking Hogans (3/2)</desc>
 <url>http://www.geocaching.com/seek/cache_details.aspx?guid=073fd951-1051-4d49-b598-7a140be4b50e</url>
 <urlname>Another  :-)  Dog Cache by Happy Hiking Hogans</urlname>
 <sym>Geocache</sym>
 <type>Geocache|Traditional Cache</type>
</wpt>
<wpt lat="33.955333000" lon="-84.119000000"><time>2005-01-11T00:00:00Z</time>
 <name>GCMFP4</name>
 <desc>Picnic with Bees by Acuttie (2/1)</desc>
 <url>http://www.geocaching.com/seek/cache_details.aspx?guid=00bda150-e328-469a-beb0-8d8baf093895</url>
 <urlname>Picnic with Bees by Acuttie</urlname>
 <sym>Geocache</sym>
 <type>Geocache|Traditional Cache</type>
</wpt>
<wpt lat="34.084317000" lon="-84.269233000"><time>2005-09-29T00:00:00Z</time>
 <name>GCQR12</name>
 <desc>ALF office by sandshot (1.5/1)</desc>
 <url>http://www.geocaching.com/seek/cache_details.aspx?guid=29963c1c-35a1-4618-92c7-910ada02c2c8</url>
 <urlname>ALF office by sandshot</urlname>
 <sym>Geocache</sym>
 <type>Geocache|Traditional Cache</type>
</wpt>
<wpt lat="34.108367000" lon="-84.283883000"><time>2003-01-12T00:00:00Z</time>
 <name>GCC34C</name>
 <desc>Alpharetta Poker Micro Cache #2 by bbotz, loLA and Mictlan (1/1)</desc>
 <url>http://www.geocaching.com/seek/cache_details.aspx?guid=3d06dac9-7ccb-4c50-aeb1-f52fc6a61cc4</url>
 <urlname>Alpharetta Poker Micro Cache #2 by bbotz, loLA and Mictlan</urlname>
 <sym>Geocache</sym>
 <type>Geocache|Traditional Cache</type>
</wpt>
<wpt lat="34.461083000" lon="-84.257733000"><time>2005-09-25T00:00:00Z</time>
 <name>GCQPJV</name>
 <desc>What Was This Site's History? by BC Chipmunks (1.5/1.5)</desc>
 <url>http://www.geocaching.com/seek/cache_details.aspx?guid=5a466cb9-7e6c-45d0-8ab2-b43e64e62bb5</url>
 <urlname>What Was This Site's History? by BC Chipmunks</urlname>
 <sym>Geocache</sym>
 <type>Geocache|Traditional Cache</type>
</wpt>
<wpt lat="34.046100000" lon="-84.237667000"><time>2004-08-07T00:00:00Z</time>
 <name>GCK6WX</name>
 <desc>Ocee Signs ^v by Hawkeye_Family (1.5/1.5)</desc>
 <url>http://www.geocaching.com/seek/cache_details.aspx?guid=383a9680-8832-4bd9-9d50-c28d1f16d9d5</url>
 <urlname>Ocee Signs ^v by Hawkeye_Family</urlname>
 <sym>Geocache</sym>
 <type>Geocache|Unknown Cache</type>
</wpt>
<wpt lat="34.061800000" lon="-84.247583000"><time>2004-10-01T00:00:00Z</time>
 <name>GCKPG3</name>
 <desc>My Favorite Place by GT Sailor (2/1)</desc>
 <url>http://www.geocaching.com/seek/cache_details.aspx?guid=5a3b1f55-b627-4f18-9aae-3f29ecd2d81f</url>
 <urlname>My Favorite Place by GT Sailor</urlname>
 <sym>Geocache</sym>
 <type>Geocache|Traditional Cache</type>
</wpt>
<wpt lat="34.085817000" lon="-84.265700000"><time>2005-10-05T00:00:00Z</time>
 <name>GCQVHC</name>
 <desc>Helo Carly! by sandshot (1.5/1)</desc>
 <url>http://www.geocaching.com/seek/cache_details.aspx?guid=5cbcbecf-dfa6-4f20-884e-f795bbc0c32b</url>
 <urlname>Helo Carly! by sandshot</urlname>
 <sym>Geocache</sym>
 <type>Geocache|Traditional Cache</type>
</wpt>
<wpt lat="34.069617000" lon="-84.253617000"><time>2003-01-12T00:00:00Z</time>
 <name>GCC34D</name>
 <desc>Alpharetta Poker Micro Cache #3 by bbotz, loLA and Mictlan (1/1)</desc>
 <url>http://www.geocaching.com/seek/cache_details.aspx?guid=5454e317-4166-4935-a0a6-6abb13dc46c2</url>
 <urlname>Alpharetta Poker Micro Cache #3 by bbotz, loLA and Mictlan</urlname>
 <sym>Geocache</sym>
 <type>Geocache|Traditional Cache</type>
</wpt>
<wpt lat="33.905000000" lon="-83.916500000"><time>2003-08-13T00:00:00Z</time>
 <name>GCGMZZ</name>
 <desc>Dispatch for Thomas Jefferson by smoothjazz (4/1.5)</desc>
 <url>http://www.geocaching.com/seek/cache_details.aspx?guid=ac65a799-5f5b-4e25-b18a-5a6a099d3108</url>
 <urlname>Dispatch for Thomas Jefferson by smoothjazz</urlname>
 <sym>Geocache</sym>
 <type>Geocache|Unknown Cache</type>
</wpt>
<wpt lat="33.963733000" lon="-84.125850000"><time>2005-01-25T00:00:00Z</time>
 <name>GCMHQ9</name>
 <desc><![CDATA[Mr. Potato Head by Acuttie &amp; I-Boy (1.5/1)]]></desc>
 <url>http://www.geocaching.com/seek/cache_details.aspx?guid=15251ef1-337b-4947-8a82-cfdc12f5d441</url>
 <urlname><![CDATA[Mr. Potato Head by Acuttie &amp; I-Boy]]></urlname>
 <sym>Geocache</sym>
 <type>Geocache|Multi-cache</type>
</wpt>
<wpt lat="34.108317000" lon="-84.278983000"><time>2004-09-24T00:00:00Z</time>
 <name>GCKMNF</name>
 <desc>It's not all Greek to me. by Hawkeye_Family (3/1.5)</desc>
 <url>http://www.geocaching.com/seek/cache_details.aspx?guid=12f04760-fc41-43ea-9753-0a7dfbbb008d</url>
 <urlname>It's not all Greek to me. by Hawkeye_Family</urlname>
 <sym>Geocache</sym>
 <type>Geocache|Unknown Cache</type>
</wpt>
<wpt lat="33.905733000" lon="-83.919833000"><time>2004-06-29T00:00:00Z</time>
 <name>GCJVH7</name>
 <desc>Recycler #1 by Dougs94 and Linda (1.5/1.5)</desc>
 <url>http://www.geocaching.com/seek/cache_details.aspx?guid=6eba2f2f-4110-4dff-a50d-5ba5f42cf616</url>
 <urlname>Recycler #1 by Dougs94 and Linda</urlname>
 <sym>Geocache</sym>
 <type>Geocache|Traditional Cache</type>
</wpt>
<wpt lat="33.976150000" lon="-84.146167000"><time>2005-05-17T00:00:00Z</time>
 <name>GCNZ43</name>
 <desc>"How Well"? by bluprizm (2/1.5)</desc>
 <url>http://www.geocaching.com/seek/cache_details.aspx?guid=fd87222a-73da-423a-9b25-66b5427a1ff9</url>
 <urlname>"How Well"? by bluprizm</urlname>
 <sym>Geocache</sym>
 <type>Geocache|Traditional Cache</type>
</wpt>
<wpt lat="33.906667000" lon="-83.916667000"><time>2004-05-26T00:00:00Z</time>
 <name>GCJHKP</name>
 <desc>The Da Vinci edoC by smoothjazz and Mr. Brown (2/1.5)</desc>
 <url>http://www.geocaching.com/seek/cache_details.aspx?guid=8324c6bb-9b4b-42f3-b57f-ca78db66e306</url>
 <urlname>The Da Vinci edoC by smoothjazz and Mr. Brown</urlname>
 <sym>Geocache</sym>
 <type>Geocache|Unknown Cache</type>
</wpt>
<wpt lat="33.916950000" lon="-83.989450000"><time>2003-07-23T00:00:00Z</time>
 <name>GCGGRR</name>
 <desc>Gwinnett Co Fairgrounds Micro by Mushtang (2/1)</desc>
 <url>http://www.geocaching.com/seek/cache_details.aspx?guid=2b4d13ae-71c5-455f-966f-dd80cb616da4</url>
 <urlname>Gwinnett Co Fairgrounds Micro by Mushtang</urlname>
 <sym>Geocache</sym>
 <type>Geocache|Unknown Cache</type>
</wpt>
<wpt lat="34.094483000" lon="-84.266683000"><time>2003-11-14T00:00:00Z</time>
 <name>GCH7GP</name>
 <desc>Lunch Break! #9 - V by A Nord (1/1)</desc>
 <url>http://www.geocaching.com/seek/cache_details.aspx?guid=a95a629b-b8d5-406d-8ab7-5ec429ab749a</url>
 <urlname>Lunch Break! #9 - V by A Nord</urlname>
 <sym>Geocache</sym>
 <type>Geocache|Traditional Cache</type>
</wpt>
<wpt lat="33.931417000" lon="-84.041617000"><time>2004-09-02T00:00:00Z</time>
 <name>GCKENX</name>
 <desc>Oportunidad de Trabajo by uraca (1/1)</desc>
 <url>http://www.geocaching.com/seek/cache_details.aspx?guid=6079cf57-7029-4f69-8d8c-3903025b4fea</url>
 <urlname>Oportunidad de Trabajo by uraca</urlname>
 <sym>Geocache</sym>
 <type>Geocache|Traditional Cache</type>
</wpt>
<wpt lat="33.925083000" lon="-84.018283000"><time>2005-10-15T00:00:00Z</time>
 <name>GCQZPA</name>
 <desc>Mankind Helper by galgreet (1/1)</desc>
 <url>http://www.geocaching.com/seek/cache_details.aspx?guid=3c5f4908-5076-475f-bd28-65390c0f1c7a</url>
 <urlname>Mankind Helper by galgreet</urlname>
 <sym>Geocache</sym>
 <type>Geocache|Traditional Cache</type>
</wpt>
<wpt lat="34.574267000" lon="-84.101500000"><time>2002-11-10T00:00:00Z</time>
 <name>GCB428</name>
 <desc>The Bradford Cache by B8B (3/2)</desc>
 <url>http://www.geocaching.com/seek/cache_details.aspx?guid=7a23dc09-e949-493e-94c2-7314e2182210</url>
 <urlname>The Bradford Cache by B8B</urlname>
 <sym>Geocache</sym>
 <type>Geocache|Traditional Cache</type>
</wpt>
<wpt lat="34.596550000" lon="-84.044883000"><time>2001-09-23T00:00:00Z</time>
 <name>GC20D2</name>
 <desc>200 easy steps by The Black Knight (3.5/3.5)</desc>
 <url>http://www.geocaching.com/seek/cache_details.aspx?guid=e63c1261-121c-43b6-b928-48e83a396b95</url>
 <urlname>200 easy steps by The Black Knight</urlname>
 <sym>Geocache</sym>
 <type>Geocache|Multi-cache</type>
</wpt>
<wpt lat="34.019133000" lon="-84.199117000"><time>2005-09-09T00:00:00Z</time>
 <name>GCQG9M</name>
 <desc>Elementary My Dear by fisherman28 and bsacacher (2/2.5)</desc>
 <url>http://www.geocaching.com/seek/cache_details.aspx?guid=5526d5f1-c7be-4520-bb1c-5a1fea1f5d8d</url>
 <urlname>Elementary My Dear by fisherman28 and bsacacher</urlname>
 <sym>Geocache</sym>
 <type>Geocache|Traditional Cache</type>
</wpt>
<wpt lat="33.969600000" lon="-84.127783000"><time>2005-04-16T00:00:00Z</time>
 <name>GCMV96</name>
 <desc>McDaniel Farm Fun by balloon_bob (1.5/1)</desc>
 <url>http://www.geocaching.com/seek/cache_details.aspx?guid=c7d32dfc-90ea-4ef9-8578-19072f350ec4</url>
 <urlname>McDaniel Farm Fun by balloon_bob</urlname>
 <sym>Geocache</sym>
 <type>Geocache|Traditional Cache</type>
</wpt>
<wpt lat="33.968083000" lon="-84.124933000"><time>2004-10-11T00:00:00Z</time>
 <name>GCKT7J</name>
 <desc><![CDATA[Old McDaniel Had a Farm by Boo &amp; Kitty (2/2.5)]]></desc>
 <url>http://www.geocaching.com/seek/cache_details.aspx?guid=43bc6fc6-e3d9-49fe-a4db-a33b2d8171c9</url>
 <urlname><![CDATA[Old McDaniel Had a Farm by Boo &amp; Kitty]]></urlname>
 <sym>Geocache</sym>
 <type>Geocache|Traditional Cache</type>
</wpt>
<wpt lat="33.909750000" lon="-83.917583000"><time>2002-02-15T00:00:00Z</time>
 <name>GC3A05</name>
 <desc>ACER I by Team Acer (2/3)</desc>
 <url>http://www.geocaching.com/seek/cache_details.aspx?guid=e4cf37a7-e753-4de3-a4c0-9a8bed10edbc</url>
 <urlname>ACER I by Team Acer</urlname>
 <sym>Geocache</sym>
 <type>Geocache|Traditional Cache</type>
</wpt>
<wpt lat="33.909833000" lon="-83.911717000"><time>2001-05-19T00:00:00Z</time>
 <name>GC9B4</name>
 <desc>New Hope Cache by erik (2.5/2)</desc>
 <url>http://www.geocaching.com/seek/cache_details.aspx?guid=b0340919-1fa3-4dd4-bb3e-4a768394cc17</url>
 <urlname>New Hope Cache by erik</urlname>
 <sym>Geocache</sym>
 <type>Geocache|Traditional Cache</type>
</wpt>
<wpt lat="34.120300000" lon="-83.494550000"><time>2002-09-06T00:00:00Z</time>
 <name>GC8A6D</name>
 <desc>It's A Bear by AndymanD and Jimbo (3/2)</desc>
 <url>http://www.geocaching.com/seek/cache_details.aspx?guid=cb02c7eb-7d1a-4a94-a87d-6b7d27622d96</url>
 <urlname>It's A Bear by AndymanD and Jimbo</urlname>
 <sym>Geocache</sym>
 <type>Geocache|Multi-cache</type>
</wpt>